{
  "events": [
    {
      "id": "51978f3cb935",
      "title": "Weekly Trivia @ South End",
      "date": "2026-03-30T19:00:00",
      "location": "Downtown Boone, NC",
      "description": "Every Monday at 7pm join South End Brewing for Trivia!",
      "source": "Downtown Boone",
      "url": "https://downtownboonenc.com/eventinfo/weekly-trivia-south-end/2026-03-30/",
      "latitude": 36.2168,
      "longitude": -81.6746
    },
    {
      "id": "0ce022ead72a",
      "title": "Kinesthetic Communication with the Newborn ft Tom Myers &amp; Sister MorningStar",
      "date": "2026-03-31T00:00:00",
      "location": "AyurPrana Listening Room, 312 Haywood Rd,Asheville, North Carolina, Asheville, NC",
      "description": "",
      "source": "AllEvents Asheville",
      "url": "https://allevents.in/asheville/kinesthetic-communication-with-the-newborn-ft-tom-myers-and-sister-morningstar/200029856657336",
      "latitude": 35.577621,
      "longitude": -82.576012
    },
    {
      "id": "da47ea7b7491",
      "title": "Robert Plant and Saving Grace with Suzi Dian Tickets Asheville NC Harrah's Cherokee Center",
      "date": "2026-04-01T00:00:00",
      "location": "87 Haywood St, Asheville, NC 28801-2852, United States, 87 Haywood St, Asheville, NC 28801-2852, United States, Ashevill",
      "description": "",
      "source": "AllEvents Asheville",
      "url": "https://allevents.in/asheville/robert-plant-and-saving-grace-with-suzi-dian-tickets-asheville-nc-harrahs-cherokee-center/200029534440900",
      "latitude": 35.597481,
      "longitude": -82.55529
    },
    {
      "id": "bbfe83098e24",
      "title": "Sister's Secret Habit Ice Cream Release",
      "date": "2026-04-01T15:30:00.923000",
      "location": "The Hop, 56 Patton Avenue, Asheville, NC, 28801",
      "description": "Some habits are meant to be kept secret\u2026 Others eventually melt under pressure.",
      "source": "Downtown Asheville",
      "url": "https://www.ashevilledowntown.org/events/easter-basket-ice-cream-release-3ssp3",
      "latitude": 35.5943996,
      "longitude": -82.5539019
    },
    {
      "id": "aca70c173b39",
      "title": "Wednesday Night Bluegrass at The Ugly Dog Pub",
      "date": "2026-04-01T18:30:00",
      "location": "Blue Ridge, NC",
      "description": "",
      "source": "Blue Ridge Music NC",
      "url": "https://www.blueridgemusicnc.com/event/wednesday-night-bluegrass-at-the-ugly-dog-pub/2026-04-01/",
      "latitude": 36.2168,
      "longitude": -81.6746
    },
    {
      "id": "92dc21b50c04",
      "title": "KnitFlix @ The AppTheatre: Hamnet (2025)",
      "date": "2026-04-02T17:30:00",
      "location": "Appalachian Theatre, 559 W King St, Boone, NC",
      "description": "",
      "source": "Appalachian Theatre",
      "url": "https://www.apptheatre.org/events-and-tickets/knitflix-hamnet",
      "latitude": 36.2157,
      "longitude": -81.6752
    },
    {
      "id": "b839a244c9c0",
      "title": "Community Jam \u2013 Crown Restaurant",
      "date": "2026-04-02T19:00:00",
      "location": "Blue Ridge, NC",
      "description": "",
      "source": "Blue Ridge Music NC",
      "url": "https://www.blueridgemusicnc.com/event/community-jam-crown-restaurant/2026-04-02/",
      "latitude": 36.2168,
      "longitude": -81.6746
    },
    {
      "id": "55d6b72f5e20",
      "title": "Weekly Jam Sessions at the Jones House",
      "date": "2026-04-02T19:00:00",
      "location": "Blue Ridge, NC",
      "description": "",
      "source": "Blue Ridge Music NC",
      "url": "https://www.blueridgemusicnc.com/event/weekly-jam-sessions-at-the-jones-house/2026-04-02/",
      "latitude": 36.2168,
      "longitude": -81.6746
    },
    {
      "id": "ad130f6d1b6d",
      "title": "Old-Time Jam at the Jones House",
      "date": "2026-04-02T19:00:00",
      "location": "Downtown Boone, NC",
      "description": "Every Thursday evening from 7-10 PM, join local and visiting musicians at the Jones House for an old-time jam session. Bring your banjo, fiddle, guitar, mandolin \u2013 or whatever old-time acoustic instru",
      "source": "Downtown Boone",
      "url": "https://downtownboonenc.com/eventinfo/old-time-jam-at-the-jones-house/2026-04-02/",
      "latitude": 36.2168,
      "longitude": -81.6746
    },
    {
      "id": "8ea5514f04ea",
      "title": "John Craigie: Spring 2026 w/ Anthony da Costa at The Grey Eagle",
      "date": "2026-04-03T00:00:00",
      "location": "The Grey Eagle, Grey Eagle Music Hall, 185 Clingman Ave, Asheville, NC 28801, United States, Asheville, NC",
      "description": "",
      "source": "AllEvents Asheville",
      "url": "https://allevents.in/asheville/john-craigie-spring-2026-w-anthony-da-costa-at-the-grey-eagle/200029427656113",
      "latitude": 35.587063,
      "longitude": -82.564362
    },
    {
      "id": "afc238303758",
      "title": "The Snozzberries w Steve Kelly at Asheville Music Hall",
      "date": "2026-04-03T00:00:00",
      "location": "Asheville Music Hall &amp; The One Stop, 55 College Street,Asheville,NC,United States, Asheville, NC",
      "description": "",
      "source": "AllEvents Asheville",
      "url": "https://allevents.in/asheville/the-snozzberries-w-steve-kelly-at-asheville-music-hall/200029792491653",
      "latitude": 35.5952,
      "longitude": -82.553123
    },
    {
      "id": "9c0e60d85d2d",
      "title": "Asheville Comedy Festival- SPRING LAUGH INVASION",
      "date": "2026-04-03T00:00:00",
      "location": "Wortham Center for the Performing Arts, 18 Biltmore Ave.,Asheville, North Carolina, Asheville, NC",
      "description": "",
      "source": "AllEvents Asheville",
      "url": "https://allevents.in/asheville/asheville-comedy-festival-spring-laugh-invasion/200029792476035",
      "latitude": 35.594505,
      "longitude": -82.551003
    },
    {
      "id": "12f0e8c7fd85",
      "title": "The Art of Walking",
      "date": "2026-04-03T15:00:00",
      "location": "The Turchin Center for the Visual Arts, 423 W. King Street, Boone, N, 28608, United States",
      "description": "The Art of Walking Boone Greenway and Kennedy Trail First Fridays, 3:00-4:30pm A 3-mile loop with an art theme to complement the First Friday Art Crawl in Boone on the first Friday of each month. No e",
      "source": "Downtown Boone",
      "url": "https://downtownboonenc.com/eventinfo/the-art-of-walking/2026-04-03/",
      "latitude": 36.2168,
      "longitude": -81.6746
    },
    {
      "id": "fa1e83577ae9",
      "title": "Easter Basket Ice Cream Release",
      "date": "2026-04-03T15:30:00.923000",
      "location": "The Hop, 56 Patton Avenue, Asheville, NC, 28801",
      "description": "Join The Hop on Good Friday, April 3rd, for the release of a brand new seasonal flavor: Easter Basket Ice Cream",
      "source": "Downtown Asheville",
      "url": "https://www.ashevilledowntown.org/events/easter-basket-ice-cream-release",
      "latitude": 35.5943996,
      "longitude": -82.5539019
    },
    {
      "id": "7b3212a7d946",
      "title": "First Friday Art Crawl",
      "date": "2026-04-03T17:00:00",
      "location": "Downtown Boone, NC",
      "description": "https://www.watauga-arts.org/first-friday-art-crawls",
      "source": "Downtown Boone",
      "url": "https://downtownboonenc.com/eventinfo/first-friday-art-crawl-2/2026-04-03/",
      "latitude": 36.2168,
      "longitude": -81.6746
    },
    {
      "id": "76d1f816be8d",
      "title": "The Passion of the Christ (2004)",
      "date": "2026-04-03T18:00:00",
      "location": "Appalachian Theatre, 559 W King St, Boone, NC",
      "description": "",
      "source": "Appalachian Theatre",
      "url": "https://www.apptheatre.org/events-and-tickets/the-passion-of-the-christ",
      "latitude": 36.2157,
      "longitude": -81.6752
    },
    {
      "id": "00927634b438",
      "title": "An Evening of Comedy and Magic with Lyndy Phillips",
      "date": "2026-04-03T19:00:00",
      "location": "Mysterium Escape Adventure, 737 W. King Street, Boone, NC, 28607, United States",
      "description": "The Carolina Comedy Magic Parlor delivers an intimate and unforgettable evening of magic and laughter, with limited seating. Step into a cozy parlor-style theater where every seat is the best seat in ",
      "source": "Downtown Boone",
      "url": "https://downtownboonenc.com/eventinfo/an-evening-of-comedy-and-magic-with-lyndy-phillips-2/2026-04-03/",
      "latitude": 36.2168,
      "longitude": -81.6746
    },
    {
      "id": "6f611ec194e2",
      "title": "Not That Innocent [2000\u2019s dance party]",
      "date": "2026-04-04T00:00:00",
      "location": "55 College Street, Asheville, NC, United States, North Carolina 28801, 55 College St, Asheville, NC 28801-2819, United S",
      "description": "",
      "source": "AllEvents Asheville",
      "url": "https://allevents.in/asheville/not-that-innocent-2000\u2019s-dance-party/200029856636700",
      "latitude": 35.5952,
      "longitude": -82.553123
    },
    {
      "id": "b24cf8c6b48c",
      "title": "The Get Right Band (Vinyl Release Show) + Hustle Souls at Eulogy",
      "date": "2026-04-04T00:00:00",
      "location": "10 Buxton Avenue, Asheville, North Carolina 28801, United States, 10 Buxton Ave, Asheville, NC 28801-4020, United States",
      "description": "",
      "source": "AllEvents Asheville",
      "url": "https://allevents.in/asheville/the-get-right-band-vinyl-release-show-hustle-souls-at-eulogy/200029690556625",
      "latitude": 35.588348,
      "longitude": -82.553902
    },
    {
      "id": "b904c7df7202",
      "title": "Yadkin Bluegrass & Old Time Fiddlers Convention",
      "date": "2026-04-04T13:00:00",
      "location": "Blue Ridge, NC",
      "description": "",
      "source": "Blue Ridge Music NC",
      "url": "https://www.blueridgemusicnc.com/event/yadkin-bluegrass-old-time-convention/",
      "latitude": 36.2168,
      "longitude": -81.6746
    },
    {
      "id": "cdf534f643d6",
      "title": "The Prince of Egypt (1998)",
      "date": "2026-04-04T14:00:00",
      "location": "Appalachian Theatre, 559 W King St, Boone, NC",
      "description": "",
      "source": "Appalachian Theatre",
      "url": "https://www.apptheatre.org/events-and-tickets/the-prince-of-egypt",
      "latitude": 36.2157,
      "longitude": -81.6752
    },
    {
      "id": "ef352d6dea57",
      "title": "Alleghany Jubilee",
      "date": "2026-04-04T19:00:00",
      "location": "Blue Ridge, NC",
      "description": "",
      "source": "Blue Ridge Music NC",
      "url": "https://www.blueridgemusicnc.com/event/alleghany-jubilee/2026-04-04/",
      "latitude": 36.2168,
      "longitude": -81.6746
    },
    {
      "id": "e1d62180b472",
      "title": "Asheville Community Square Dance",
      "date": "2026-04-04T19:00:00",
      "location": "Blue Ridge, NC",
      "description": "",
      "source": "Blue Ridge Music NC",
      "url": "https://www.blueridgemusicnc.com/event/asheville-community-square-dance/2026-04-04/",
      "latitude": 36.2168,
      "longitude": -81.6746
    },
    {
      "id": "4f1153b5e39d",
      "title": "Juvenile\u2019s Boiling with The 400 Degreez Band",
      "date": "2026-04-05T00:00:00",
      "location": "The Orange Peel, 101 Biltmore Ave, Asheville, NC 28801-3640, United States, Asheville, NC",
      "description": "",
      "source": "AllEvents Asheville",
      "url": "https://allevents.in/asheville/juvenile\u2019s-boiling-with-the-400-degreez-band/200029536518441",
      "latitude": 35.591415,
      "longitude": -82.551147
    },
    {
      "id": "4f5984f849fb",
      "title": "Juvenile's Boiling Point Album Release Tour w/ special guests",
      "date": "2026-04-05T00:00:00",
      "location": "The Orange Peel, Asheville, NC",
      "description": "",
      "source": "AllEvents Asheville",
      "url": "https://allevents.in/asheville/juveniles-boiling-point-album-release-tour-w-special-guests/210001707541312",
      "latitude": 35.594799,
      "longitude": -82.557198
    },
    {
      "id": "71eadc5e3180",
      "title": "Easter Brunch at Blue Ridge",
      "date": "2026-04-05T00:00:00",
      "location": "The Omni Grove Park Inn &amp; Spa, 290 Macon Ave,Asheville, North Carolina, Asheville, NC",
      "description": "",
      "source": "AllEvents Asheville",
      "url": "https://allevents.in/asheville/easter-brunch-at-blue-ridge/200029785080850",
      "latitude": 35.620369,
      "longitude": -82.542618
    },
    {
      "id": "ef45e807612b",
      "title": "Weekly Trivia @ South End",
      "date": "2026-04-06T19:00:00",
      "location": "Downtown Boone, NC",
      "description": "Every Monday at 7pm join South End Brewing for Trivia!",
      "source": "Downtown Boone",
      "url": "https://downtownboonenc.com/eventinfo/weekly-trivia-south-end/2026-04-06/",
      "latitude": 36.2168,
      "longitude": -81.6746
    },
    {
      "id": "73186336b05c",
      "title": "The Devil Wears Prada - Band Tickets",
      "date": "2026-04-07T00:00:00",
      "location": "Five Points, Jacksonville Fl, Asheville, North Carolina, Asheville, NC",
      "description": "",
      "source": "AllEvents Asheville",
      "url": "https://allevents.in/asheville/the-devil-wears-prada-band-tickets/200029856680124",
      "latitude": 35.594749,
      "longitude": -82.580589
    },
    {
      "id": "3ec82fe47f08",
      "title": "Ballad Night at the Old Marshall Jail Hotel",
      "date": "2026-04-08T18:00:00",
      "location": "Blue Ridge, NC",
      "description": "",
      "source": "Blue Ridge Music NC",
      "url": "https://www.blueridgemusicnc.com/event/ballad-night-at-the-old-marshall-jail-hotel/2026-04-08/",
      "latitude": 36.2168,
      "longitude": -81.6746
    },
    {
      "id": "2f602ddac100",
      "title": "Wednesday Night Bluegrass at The Ugly Dog Pub",
      "date": "2026-04-08T18:30:00",
      "location": "Blue Ridge, NC",
      "description": "",
      "source": "Blue Ridge Music NC",
      "url": "https://www.blueridgemusicnc.com/event/wednesday-night-bluegrass-at-the-ugly-dog-pub/2026-04-08/",
      "latitude": 36.2168,
      "longitude": -81.6746
    },
    {
      "id": "bd0d5a6a72e9",
      "title": "Stormy Daniels, Unicorns in the Kitchen Tour",
      "date": "2026-04-09T00:00:00",
      "location": "Eulogy, 10 Buxton Avenue, Asheville, NC",
      "description": "",
      "source": "AllEvents Asheville",
      "url": "https://allevents.in/asheville/stormy-daniels-unicorns-in-the-kitchen-tour/100001984078546342",
      "latitude": 35.588303,
      "longitude": -82.553963
    },
    {
      "id": "5439d01ccf21",
      "title": "Christian Harmony Sing \u2013 Asheville NC",
      "date": "2026-04-09T18:30:00",
      "location": "Blue Ridge, NC",
      "description": "",
      "source": "Blue Ridge Music NC",
      "url": "https://www.blueridgemusicnc.com/event/christian-harmony-sing-asheville-nc/2026-04-09/",
      "latitude": 36.2168,
      "longitude": -81.6746
    },
    {
      "id": "0f3802ac8390",
      "title": "Community Jam \u2013 Crown Restaurant",
      "date": "2026-04-09T19:00:00",
      "location": "Blue Ridge, NC",
      "description": "",
      "source": "Blue Ridge Music NC",
      "url": "https://www.blueridgemusicnc.com/event/community-jam-crown-restaurant/2026-04-09/",
      "latitude": 36.2168,
      "longitude": -81.6746
    },
    {
      "id": "0cafc6fdc785",
      "title": "Weekly Jam Sessions at the Jones House",
      "date": "2026-04-09T19:00:00",
      "location": "Blue Ridge, NC",
      "description": "",
      "source": "Blue Ridge Music NC",
      "url": "https://www.blueridgemusicnc.com/event/weekly-jam-sessions-at-the-jones-house/2026-04-09/",
      "latitude": 36.2168,
      "longitude": -81.6746
    },
    {
      "id": "840f0c58a628",
      "title": "Old-Time Jam at the Jones House",
      "date": "2026-04-09T19:00:00",
      "location": "Downtown Boone, NC",
      "description": "Every Thursday evening from 7-10 PM, join local and visiting musicians at the Jones House for an old-time jam session. Bring your banjo, fiddle, guitar, mandolin \u2013 or whatever old-time acoustic instru",
      "source": "Downtown Boone",
      "url": "https://downtownboonenc.com/eventinfo/old-time-jam-at-the-jones-house/2026-04-09/",
      "latitude": 36.2168,
      "longitude": -81.6746
    },
    {
      "id": "5c851ed35a5b",
      "title": "Della Mae w/ Love, DEAN at The Grey Eagle",
      "date": "2026-04-10T00:00:00",
      "location": "The Grey Eagle, Grey Eagle Music Hall, 185 Clingman Ave, Asheville, NC 28801, United States, Asheville, NC",
      "description": "",
      "source": "AllEvents Asheville",
      "url": "https://allevents.in/asheville/della-mae-w-love-dean-at-the-grey-eagle/200029319812919",
      "latitude": 35.587063,
      "longitude": -82.564362
    },
    {
      "id": "71c319e0e145",
      "title": "Goose in Asheville",
      "date": "2026-04-10T00:00:00",
      "location": "Explore Asheville Convention &amp; Visitors Bureau, Explore Asheville Convention &amp; Visitors Bureau, Asheville, NC, U",
      "description": "",
      "source": "AllEvents Asheville",
      "url": "https://allevents.in/asheville/goose-in-asheville/3300029315792138",
      "latitude": 35.595058,
      "longitude": -82.551483
    },
    {
      "id": "df0612b32d1b",
      "title": "Donna De Lory",
      "date": "2026-04-10T00:00:00",
      "location": "AyurPrana Listening Room, 312 Haywood Rd,Asheville, North Carolina, Asheville, NC",
      "description": "",
      "source": "AllEvents Asheville",
      "url": "https://allevents.in/asheville/donna-de-lory/200029810521538",
      "latitude": 35.577621,
      "longitude": -82.576012
    },
    {
      "id": "ce4fa1e4921a",
      "title": "Zootopia (2016)",
      "date": "2026-04-10T17:00:00",
      "location": "Appalachian Theatre, 559 W King St, Boone, NC",
      "description": "",
      "source": "Appalachian Theatre",
      "url": "https://www.apptheatre.org/events-and-tickets/zootopia",
      "latitude": 36.2157,
      "longitude": -81.6752
    },
    {
      "id": "5fabd6f94f14",
      "title": "An Evening of Comedy and Magic with Lyndy Phillips",
      "date": "2026-04-10T19:00:00",
      "location": "Mysterium Escape Adventure, 737 W. King Street, Boone, NC, 28607, United States",
      "description": "The Carolina Comedy Magic Parlor delivers an intimate and unforgettable evening of magic and laughter, with limited seating. Step into a cozy parlor-style theater where every seat is the best seat in ",
      "source": "Downtown Boone",
      "url": "https://downtownboonenc.com/eventinfo/an-evening-of-comedy-and-magic-with-lyndy-phillips-2/2026-04-10/",
      "latitude": 36.2168,
      "longitude": -81.6746
    },
    {
      "id": "eac094df7151",
      "title": "Between Walls and Windows",
      "date": "2026-04-10T23:00:00.985000",
      "location": "Diana Wortham Theatre, 18 Biltmore Avenue, Asheville, NC, 28801",
      "description": "This immersive performance moves through vignettes of intimacy, distance, and unease, evoking the sensations of being young, observed, and on the verge of something unnamed.",
      "source": "Downtown Asheville",
      "url": "https://www.ashevilledowntown.org/events/between-walls-and-windows",
      "latitude": 35.5943438,
      "longitude": -82.5511352
    },
    {
      "id": "cccb06649aea",
      "title": "Randall Bramblett Band at The Grey Eagle",
      "date": "2026-04-11T00:00:00",
      "location": "The Grey Eagle, Grey Eagle Music Hall, 185 Clingman Ave, Asheville, NC 28801, United States, Asheville, NC",
      "description": "",
      "source": "AllEvents Asheville",
      "url": "https://allevents.in/asheville/randall-bramblett-band-at-the-grey-eagle/200029794911934",
      "latitude": 35.587063,
      "longitude": -82.564362
    },
    {
      "id": "a1ceb2fc5a65",
      "title": "One Battle After Another (2025)",
      "date": "2026-04-11T17:30:00",
      "location": "Appalachian Theatre, 559 W King St, Boone, NC",
      "description": "",
      "source": "Appalachian Theatre",
      "url": "https://www.apptheatre.org/events-and-tickets/one-battle-after-another",
      "latitude": 36.2157,
      "longitude": -81.6752
    },
    {
      "id": "f7672d13f729",
      "title": "Raise the Roof: CCCRA Benefit featuring Unspoken Tradition",
      "date": "2026-04-11T19:00:00",
      "location": "Blue Ridge, NC",
      "description": "",
      "source": "Blue Ridge Music NC",
      "url": "https://www.blueridgemusicnc.com/event/raise-the-roof-ccra-benefit-featuring-unspoken-tradition/",
      "latitude": 36.2168,
      "longitude": -81.6746
    },
    {
      "id": "0c550cf1a196",
      "title": "Crowbar &amp; Eyehategod",
      "date": "2026-04-13T00:00:00",
      "location": "10 Buxton Avenue, Asheville, North Carolina 28801, United States, 10 Buxton Ave, Asheville, NC 28801-4020, United States",
      "description": "",
      "source": "AllEvents Asheville",
      "url": "https://allevents.in/asheville/crowbar-and-eyehategod/200029466467901",
      "latitude": 35.588348,
      "longitude": -82.553902
    },
    {
      "id": "1ec048f1edda",
      "title": "Weekly Trivia @ South End",
      "date": "2026-04-13T19:00:00",
      "location": "Downtown Boone, NC",
      "description": "Every Monday at 7pm join South End Brewing for Trivia!",
      "source": "Downtown Boone",
      "url": "https://downtownboonenc.com/eventinfo/weekly-trivia-south-end/2026-04-13/",
      "latitude": 36.2168,
      "longitude": -81.6746
    },
    {
      "id": "e0b4cffcd402",
      "title": "Free Cone Day Benefit for Save the Woods at Downtown Asheville Ben &amp; Jerry's",
      "date": "2026-04-14T00:00:00",
      "location": "Ben &amp; Jerry\u2019s (Asheville, NC), 21 Haywood St, Asheville, NC 28801-2837, United States, Asheville, NC",
      "description": "",
      "source": "AllEvents Asheville",
      "url": "https://allevents.in/asheville/free-cone-day-benefit-for-save-the-woods-at-downtown-asheville-ben-and-jerrys/200029856651910",
      "latitude": 35.595261,
      "longitude": -82.554283
    },
    {
      "id": "77ea7015ae43",
      "title": "State of Downtown",
      "date": "2026-04-14T15:00:00.979000",
      "location": "Asheville, NC",
      "description": "The State of Downtown is the Asheville Downtown Association\u2019s annual meeting bringing together Downtown stakeholders, business leaders, and community partners for a comprehensive look at the year ahea",
      "source": "Downtown Asheville",
      "url": "https://www.ashevilledowntown.org/events/state-of-downtown-2",
      "latitude": 35.5951,
      "longitude": -82.5515
    },
    {
      "id": "8905976a2469",
      "title": "THE MOTH Presents: Asheville StorySLAM - &quot;SUS&quot; at The Grey Eagle",
      "date": "2026-04-16T00:00:00",
      "location": "The Grey Eagle, 185 Clingman Ave,Asheville, North Carolina, Asheville, NC",
      "description": "",
      "source": "AllEvents Asheville",
      "url": "https://allevents.in/asheville/the-moth-presents-asheville-storyslam-sus-at-the-grey-eagle/200029534401006",
      "latitude": 35.587063,
      "longitude": -82.564362
    },
    {
      "id": "31da97f58151",
      "title": "Boonerang: Battle of the Bands - Night 2",
      "date": "2026-04-16T19:00:00",
      "location": "Appalachian Theatre, 559 W King St, Boone, NC",
      "description": "",
      "source": "Appalachian Theatre",
      "url": "https://www.apptheatre.org/events-and-tickets/boonerang-botb1-t63h8",
      "latitude": 36.2157,
      "longitude": -81.6752
    },
    {
      "id": "81b33fccbedc",
      "title": "Old-Time Jam at the Jones House",
      "date": "2026-04-16T19:00:00",
      "location": "Downtown Boone, NC",
      "description": "Every Thursday evening from 7-10 PM, join local and visiting musicians at the Jones House for an old-time jam session. Bring your banjo, fiddle, guitar, mandolin \u2013 or whatever old-time acoustic instru",
      "source": "Downtown Boone",
      "url": "https://downtownboonenc.com/eventinfo/old-time-jam-at-the-jones-house/2026-04-16/",
      "latitude": 36.2168,
      "longitude": -81.6746
    },
    {
      "id": "9b6e344ded86",
      "title": "Greensky Bluegrass Tickets",
      "date": "2026-04-17T00:00:00",
      "location": "75 Coxe Ave, Asheville, NC, United States, North Carolina 28801, 75 Coxe Ave, Asheville, NC 28801-3621, United States, A",
      "description": "",
      "source": "AllEvents Asheville",
      "url": "https://allevents.in/asheville/greensky-bluegrass/200029242255752",
      "latitude": 35.592072,
      "longitude": -82.555382
    },
    {
      "id": "016a99efea4b",
      "title": "Start Making Sense - Talking Heads Tribute",
      "date": "2026-04-17T00:00:00",
      "location": "31 Patton Avenue Asheville, NC 28801-3314, 31 Patton Ave, Asheville, NC 28801-3314, United States, Asheville, NC",
      "description": "",
      "source": "AllEvents Asheville",
      "url": "https://allevents.in/asheville/start-making-sense-talking-heads-tribute/200029707660611",
      "latitude": 35.594891,
      "longitude": -82.553017
    },
    {
      "id": "4ab3a5b6781b",
      "title": "This is Spinal Tap (1984)",
      "date": "2026-04-17T18:00:00",
      "location": "Appalachian Theatre, 559 W King St, Boone, NC",
      "description": "",
      "source": "Appalachian Theatre",
      "url": "https://www.apptheatre.org/events-and-tickets/this-is-spinal-tap",
      "latitude": 36.2157,
      "longitude": -81.6752
    },
    {
      "id": "9f3c3bc0a7c1",
      "title": "An Evening of Comedy and Magic with Lyndy Phillips",
      "date": "2026-04-17T19:00:00",
      "location": "Mysterium Escape Adventure, 737 W. King Street, Boone, NC, 28607, United States",
      "description": "The Carolina Comedy Magic Parlor delivers an intimate and unforgettable evening of magic and laughter, with limited seating. Step into a cozy parlor-style theater where every seat is the best seat in ",
      "source": "Downtown Boone",
      "url": "https://downtownboonenc.com/eventinfo/an-evening-of-comedy-and-magic-with-lyndy-phillips-2/2026-04-17/",
      "latitude": 36.2168,
      "longitude": -81.6746
    },
    {
      "id": "ed9fa933a45c",
      "title": "Downtown After 5 | April",
      "date": "2026-04-17T21:00:00.367000",
      "location": "Pack Square Park, 80 Court Plaza, Asheville, NC, 28801",
      "description": "Join us at Pack Square Park for Stomp &amp; Holler Night\u2014an evening of foot-stomping music, local flavors, handcrafted goods, and the lively spirit of Asheville.",
      "source": "Downtown Asheville",
      "url": "https://www.ashevilledowntown.org/events/downtown-after-5-april-kdkd8",
      "latitude": 35.5956631,
      "longitude": -82.5490674
    },
    {
      "id": "429e053dde8a",
      "title": "Reginald Golden and the Reginald Golden Singers: Stony the Road",
      "date": "2026-04-17T23:00:00.513000",
      "location": "Diana Wortham Theatre, 18 Biltmore Avenue, Asheville, NC, 28801",
      "description": "Inspired by James Weldon Johnson\u2019s Lift Every Voice and Sing, this powerful musical suite by composer Reginald Golden blends jazz, blues, gospel, folk, and spirituals. Each movement honors both the st",
      "source": "Downtown Asheville",
      "url": "https://www.ashevilledowntown.org/events/reginald-golden-and-the-reginald-golden-singers-stony-the-road",
      "latitude": 35.5943438,
      "longitude": -82.5511352
    },
    {
      "id": "e23d1debaa65",
      "title": "420 FEST w/ Acid King, Bongzilla, ASG &amp; Sunbearer",
      "date": "2026-04-18T00:00:00",
      "location": "10 Buxton Avenue, Asheville, North Carolina 28801, United States, 10 Buxton Ave, Asheville, NC 28801-4020, United States",
      "description": "",
      "source": "AllEvents Asheville",
      "url": "https://allevents.in/asheville/420-fest-w-acid-king-bongzilla-asg-and-sunbearer/200029686109608",
      "latitude": 35.588348,
      "longitude": -82.553902
    },
    {
      "id": "10830c5e6e49",
      "title": "Truck City AVL 2026",
      "date": "2026-04-18T00:00:00",
      "location": "Tanger Outlets, Asheville, OshKosh B'gosh, 800 Brevard Rd, Asheville, NC 28806, United States, Asheville, NC",
      "description": "",
      "source": "AllEvents Asheville",
      "url": "https://allevents.in/asheville/truck-city-avl-2026/200029856623224",
      "latitude": 35.530327,
      "longitude": -82.60321
    },
    {
      "id": "4f8ea0aac432",
      "title": "Wings of Fire FanWing Fest",
      "date": "2026-04-18T00:00:00",
      "location": "Asheville High School, 419 McDowell Street, Asheville, NC",
      "description": "",
      "source": "AllEvents Asheville",
      "url": "https://allevents.in/asheville/wings-of-fire-fanwing-fest/100001983469759444",
      "latitude": 35.572525,
      "longitude": -82.55175
    },
    {
      "id": "fcf2fb5c612b",
      "title": "Maker Faire Asheville 2026",
      "date": "2026-04-18T00:00:00",
      "location": "16 Fernihurst Dr, Asheville, NC 28801, United States, 16 Fernihurst Dr, Asheville, NC 28801, United States, Asheville, N",
      "description": "",
      "source": "AllEvents Asheville",
      "url": "https://allevents.in/asheville/maker-faire-asheville-2026/200029534364619",
      "latitude": 35.571781,
      "longitude": -82.556198
    },
    {
      "id": "6a2f1f19613b",
      "title": "5th Annual Ayurvedic Institute Open House",
      "date": "2026-04-18T00:00:00",
      "location": "62 Orange St. , Asheville, NC, United States, North Carolina 28801, 62 Orange St, Asheville, NC 28801-2341, United State",
      "description": "",
      "source": "AllEvents Asheville",
      "url": "https://allevents.in/asheville/5th-annual-ayurvedic-institute-open-house/200029856655427",
      "latitude": 35.601871,
      "longitude": -82.550812
    },
    {
      "id": "4cbfdf27697e",
      "title": "St. Paul &amp; The Broken Bones - 18+",
      "date": "2026-04-18T00:00:00",
      "location": "The Orange Peel, Asheville, NC",
      "description": "",
      "source": "AllEvents Asheville",
      "url": "https://allevents.in/asheville/st-paul-and-the-broken-bones-18/210007218722729",
      "latitude": 35.594799,
      "longitude": -82.557198
    },
    {
      "id": "50e703d77a8a",
      "title": "Apr. 18 - Drag Brunch Fundraiser for Youth OUTright \ud83e\udd73\ud83c\udff3\ufe0f\u200d\ud83c\udf08\ud83c\udff3\ufe0f\u200d\u26a7\ufe0f",
      "date": "2026-04-18T15:00:00.653000",
      "location": "Banks Ave Bar, 32 Banks Avenue, Asheville, NC, 28801",
      "description": "",
      "source": "Downtown Asheville",
      "url": "https://www.ashevilledowntown.org/events/drag-brunch-fundraiser-for-youth-outright",
      "latitude": 35.589068,
      "longitude": -82.5533289
    },
    {
      "id": "6211927148e5",
      "title": "The Pearl Institute Bicycle Day Symposium at Revival (Asheville)",
      "date": "2026-04-19T00:00:00",
      "location": "66 Asheland Avenue, Asheville, NC, United States, North Carolina 28801, 66 Asheland Ave, Asheville, NC 28801-3246, Unite",
      "description": "",
      "source": "AllEvents Asheville",
      "url": "https://allevents.in/asheville/the-pearl-institute-bicycle-day-symposium-at-revival-asheville/200029767027226",
      "latitude": 35.591808,
      "longitude": -82.556229
    },
    {
      "id": "9cfcf5dd1fc1",
      "title": "Italian Bred",
      "date": "2026-04-19T00:00:00.787000",
      "location": "Diana Wortham Theatre, 18 Biltmore Avenue, Asheville, NC, 28801",
      "description": "Candice Guardino\u2019s hit comedy&nbsp;Italian Bred&nbsp;is coming to Asheville\u2019s Wortham Arts for&nbsp;one night only. After sold-out runs in NYC, Chicago, and LA, Candice brings her unforgettable solo s",
      "source": "Downtown Asheville",
      "url": "https://www.ashevilledowntown.org/events/italian-bred",
      "latitude": 35.5943438,
      "longitude": -82.5511352
    },
    {
      "id": "bf7663d08bb3",
      "title": "Weekly Trivia @ South End",
      "date": "2026-04-20T19:00:00",
      "location": "Downtown Boone, NC",
      "description": "Every Monday at 7pm join South End Brewing for Trivia!",
      "source": "Downtown Boone",
      "url": "https://downtownboonenc.com/eventinfo/weekly-trivia-south-end/2026-04-20/",
      "latitude": 36.2168,
      "longitude": -81.6746
    },
    {
      "id": "f65f5250f563",
      "title": "Give Back Day at Come Back Shack",
      "date": "2026-04-21T10:30:00",
      "location": "Come Back Shack, 767 W King Street, Boone, N, 28607, United States",
      "description": "Join us for Give Back Day at Come Back Shack! Visit our Downtown Boone and Blowing Rock Rd locations anytime from 10:30AM \u2013 9PM and 20% of ALL sales will go to Watauga County Schools to eliminate stud",
      "source": "Downtown Boone",
      "url": "https://downtownboonenc.com/eventinfo/give-back-day-at-come-back-shack/2026-04-21/",
      "latitude": 36.2168,
      "longitude": -81.6746
    },
    {
      "id": "51c21e29a60e",
      "title": "Colossus: The Forbin Project (1970)",
      "date": "2026-04-21T18:00:00",
      "location": "Appalachian Theatre, 559 W King St, Boone, NC",
      "description": "",
      "source": "Appalachian Theatre",
      "url": "https://www.apptheatre.org/events-and-tickets/colossus-forbin-project",
      "latitude": 36.2157,
      "longitude": -81.6752
    },
    {
      "id": "a0a4ca2d427c",
      "title": "Superchunk",
      "date": "2026-04-22T00:00:00",
      "location": "10 Buxton Avenue, Asheville, North Carolina 28801, United States, 10 Buxton Ave, Asheville, NC 28801-4020, United States",
      "description": "",
      "source": "AllEvents Asheville",
      "url": "https://allevents.in/asheville/superchunk/200029722041834",
      "latitude": 35.588348,
      "longitude": -82.553902
    },
    {
      "id": "a5f5f9d9a765",
      "title": "Liars & Believers presents Yellow Bird Chase",
      "date": "2026-04-22T22:00:00.599000",
      "location": "Diana Wortham Theatre, 18 Biltmore Avenue, Asheville, NC, 28801",
      "description": "Wortham Center presents Yellow Bird Chase on Wednesday, April 22 at 6 pm\u2014a wordless, family friendly physical comedy bursting with silliness, surprises, and theatrical imagination.",
      "source": "Downtown Asheville",
      "url": "https://www.ashevilledowntown.org/events/liars-believers-presents-yellow-bird-chase",
      "latitude": 35.5943438,
      "longitude": -82.5511352
    },
    {
      "id": "cd739be57e3e",
      "title": "Old-Time Jam at the Jones House",
      "date": "2026-04-23T19:00:00",
      "location": "Downtown Boone, NC",
      "description": "Every Thursday evening from 7-10 PM, join local and visiting musicians at the Jones House for an old-time jam session. Bring your banjo, fiddle, guitar, mandolin \u2013 or whatever old-time acoustic instru",
      "source": "Downtown Boone",
      "url": "https://downtownboonenc.com/eventinfo/old-time-jam-at-the-jones-house/2026-04-23/",
      "latitude": 36.2168,
      "longitude": -81.6746
    },
    {
      "id": "9f28aed53e00",
      "title": "Ghostface Killah of Wu-Tang Clan",
      "date": "2026-04-24T00:00:00",
      "location": "10 Buxton Avenue, Asheville, North Carolina 28801, United States, 10 Buxton Ave, Asheville, NC 28801-4020, United States",
      "description": "",
      "source": "AllEvents Asheville",
      "url": "https://allevents.in/asheville/ghostface-killah-of-wu-tang-clan/200029792506928",
      "latitude": 35.588348,
      "longitude": -82.553902
    },
    {
      "id": "09d50bab8622",
      "title": "Ghostface Killah in Asheville",
      "date": "2026-04-24T00:00:00",
      "location": "Eulogy, Eulogy, Asheville, NC, United States, Asheville, NC",
      "description": "",
      "source": "AllEvents Asheville",
      "url": "https://allevents.in/asheville/ghostface-killah-in-asheville/3300029495534508",
      "latitude": 35.595058,
      "longitude": -82.551483
    },
    {
      "id": "3200211ce579",
      "title": "Hip-Hop Weekend 2 Night Pass",
      "date": "2026-04-24T00:00:00",
      "location": "10 Buxton Avenue, Asheville, North Carolina 28801, United States, 10 Buxton Ave, Asheville, NC 28801-4020, United States",
      "description": "",
      "source": "AllEvents Asheville",
      "url": "https://allevents.in/asheville/hip-hop-weekend-2-night-pass/200029526101751",
      "latitude": 35.588348,
      "longitude": -82.553902
    },
    {
      "id": "f1f8c4b7d44c",
      "title": "An Evening of Comedy and Magic with Lyndy Phillips",
      "date": "2026-04-24T19:00:00",
      "location": "Mysterium Escape Adventure, 737 W. King Street, Boone, NC, 28607, United States",
      "description": "The Carolina Comedy Magic Parlor delivers an intimate and unforgettable evening of magic and laughter, with limited seating. Step into a cozy parlor-style theater where every seat is the best seat in ",
      "source": "Downtown Boone",
      "url": "https://downtownboonenc.com/eventinfo/an-evening-of-comedy-and-magic-with-lyndy-phillips-2/2026-04-24/",
      "latitude": 36.2168,
      "longitude": -81.6746
    },
    {
      "id": "6a98acea381a",
      "title": "Live Nation Presents: Willie Nelson &amp; Family",
      "date": "2026-04-25T00:00:00",
      "location": "75 Coxe Ave, Asheville, NC, United States, North Carolina 28801, 75 Coxe Ave, Asheville, NC 28801-3621, United States, A",
      "description": "",
      "source": "AllEvents Asheville",
      "url": "https://allevents.in/asheville/live-nation-presents-willie-nelson-and-family/200029827804311",
      "latitude": 35.592072,
      "longitude": -82.555382
    },
    {
      "id": "9cc0d6b344da",
      "title": "Armand Hammer",
      "date": "2026-04-25T00:00:00",
      "location": "10 Buxton Avenue, Asheville, North Carolina 28801, United States, 10 Buxton Ave, Asheville, NC 28801-4020, United States",
      "description": "",
      "source": "AllEvents Asheville",
      "url": "https://allevents.in/asheville/armand-hammer/200029526623951",
      "latitude": 35.588348,
      "longitude": -82.553902
    },
    {
      "id": "b0f019e07db0",
      "title": "Grove Arcade in Bloom",
      "date": "2026-04-25T00:00:00",
      "location": "1 Page Ave, Asheville, NC 28801, United States, 1 Page Ave, Asheville, NC 28801, United States, Asheville, NC",
      "description": "",
      "source": "AllEvents Asheville",
      "url": "https://allevents.in/asheville/grove-arcade-in-bloom/200029820321734",
      "latitude": 35.595219,
      "longitude": -82.556297
    },
    {
      "id": "216fe25bc997",
      "title": "Sounds of Nature - Kids' Music Day",
      "date": "2026-04-25T19:00:00",
      "location": "Grandfather Mountain, 2050 Blowing Rock Highway, Linville, NC, 28646, United States",
      "description": "Join us for a fun-filled, nature-themed afternoon of music, where families and kids can groove to the sounds in nature! This interactive concert held in the Williams Outdoor Learning Space celebrates ",
      "source": "Grandfather Mountain",
      "url": "https://grandfather.com/event/sounds-of-nature-kids-music-day/",
      "latitude": 36.0850742,
      "longitude": -81.8462718
    },
    {
      "id": "61a0155b2f0a",
      "title": "Uncommon Market",
      "date": "2026-04-26T00:00:00",
      "location": "1 Foundy St, Asheville, NC 28801-0146, United States, 1 Foundy St, Asheville, NC 28801-0146, United States, Asheville, N",
      "description": "",
      "source": "AllEvents Asheville",
      "url": "https://allevents.in/asheville/uncommon-market/200029832774241",
      "latitude": 35.577862,
      "longitude": -82.566727
    },
    {
      "id": "f31cd762330d",
      "title": "Jazz Concert: SPRING",
      "date": "2026-04-27T00:00:00",
      "location": "10 N Liberty St, Asheville, NC, United States, North Carolina 28801, 10 N Liberty St, Asheville, NC 28801-1823, United S",
      "description": "",
      "source": "AllEvents Asheville",
      "url": "https://allevents.in/asheville/jazz-concert-spring/200029856632632",
      "latitude": 35.603512,
      "longitude": -82.55204
    },
    {
      "id": "bec84b22081a",
      "title": "Weekly Trivia @ South End",
      "date": "2026-04-27T19:00:00",
      "location": "Downtown Boone, NC",
      "description": "Every Monday at 7pm join South End Brewing for Trivia!",
      "source": "Downtown Boone",
      "url": "https://downtownboonenc.com/eventinfo/weekly-trivia-south-end/2026-04-27/",
      "latitude": 36.2168,
      "longitude": -81.6746
    },
    {
      "id": "fa57ddfc54d1",
      "title": "Old-Time Jam at the Jones House",
      "date": "2026-04-30T19:00:00",
      "location": "Downtown Boone, NC",
      "description": "Every Thursday evening from 7-10 PM, join local and visiting musicians at the Jones House for an old-time jam session. Bring your banjo, fiddle, guitar, mandolin \u2013 or whatever old-time acoustic instru",
      "source": "Downtown Boone",
      "url": "https://downtownboonenc.com/eventinfo/old-time-jam-at-the-jones-house/2026-04-30/",
      "latitude": 36.2168,
      "longitude": -81.6746
    },
    {
      "id": "76fa36e80a65",
      "title": "An Evening With Chris Smither at The Grey Eagle",
      "date": "2026-05-01T00:00:00",
      "location": "The Grey Eagle, 185 Clingman Ave,Asheville, North Carolina, Asheville, NC",
      "description": "",
      "source": "AllEvents Asheville",
      "url": "https://allevents.in/asheville/an-evening-with-chris-smither-at-the-grey-eagle/200029319812711",
      "latitude": 35.587063,
      "longitude": -82.564362
    },
    {
      "id": "7ec4d7aa8249",
      "title": "Growing In The Mountains",
      "date": "2026-05-01T00:00:00",
      "location": "570 Brevard Rd, Asheville, NC, 570 NC-191, Asheville, NC 28806-2305, United States, Asheville, NC",
      "description": "",
      "source": "AllEvents Asheville",
      "url": "https://allevents.in/asheville/growing-in-the-mountains/200029680074825",
      "latitude": 35.554359,
      "longitude": -82.599258
    },
    {
      "id": "8fb46dba561e",
      "title": "The Art of Walking",
      "date": "2026-05-01T15:00:00",
      "location": "The Turchin Center for the Visual Arts, 423 W. King Street, Boone, N, 28608, United States",
      "description": "The Art of Walking Boone Greenway and Kennedy Trail First Fridays, 3:00-4:30pm A 3-mile loop with an art theme to complement the First Friday Art Crawl in Boone on the first Friday of each month. No e",
      "source": "Downtown Boone",
      "url": "https://downtownboonenc.com/eventinfo/the-art-of-walking/2026-05-01/",
      "latitude": 36.2168,
      "longitude": -81.6746
    },
    {
      "id": "7aa64acbb3d4",
      "title": "First Friday Art Crawl",
      "date": "2026-05-01T17:00:00",
      "location": "Downtown Boone, NC",
      "description": "https://www.watauga-arts.org/first-friday-art-crawls",
      "source": "Downtown Boone",
      "url": "https://downtownboonenc.com/eventinfo/first-friday-art-crawl-2/2026-05-01/",
      "latitude": 36.2168,
      "longitude": -81.6746
    },
    {
      "id": "e9d453d5eb2b",
      "title": "IF4 International Fly Fishing Film Festival",
      "date": "2026-05-01T19:00:00",
      "location": "Appalachian Theatre, 559 W King St, Boone, NC",
      "description": "",
      "source": "Appalachian Theatre",
      "url": "https://www.apptheatre.org/events-and-tickets/if426",
      "latitude": 36.2157,
      "longitude": -81.6752
    },
    {
      "id": "0f7b6f2ab259",
      "title": "An Evening of Comedy and Magic with Lyndy Phillips",
      "date": "2026-05-01T19:00:00",
      "location": "Mysterium Escape Adventure, 737 W. King Street, Boone, NC, 28607, United States",
      "description": "The Carolina Comedy Magic Parlor delivers an intimate and unforgettable evening of magic and laughter, with limited seating. Step into a cozy parlor-style theater where every seat is the best seat in ",
      "source": "Downtown Boone",
      "url": "https://downtownboonenc.com/eventinfo/an-evening-of-comedy-and-magic-with-lyndy-phillips-2/2026-05-01/",
      "latitude": 36.2168,
      "longitude": -81.6746
    },
    {
      "id": "20fbb3efc93c",
      "title": "Ani DiFranco - Spirit of Love Tour w/ special guest Valerie June",
      "date": "2026-05-02T00:00:00",
      "location": "75 Coxe Ave, Asheville, NC, United States, North Carolina 28801, 75 Coxe Ave, Asheville, NC 28801-3621, United States, A",
      "description": "",
      "source": "AllEvents Asheville",
      "url": "https://allevents.in/asheville/ani-difranco-spirit-of-love-tour-w-special-guest-valerie-june/200029792507129",
      "latitude": 35.592072,
      "longitude": -82.555382
    },
    {
      "id": "abf3996fb454",
      "title": "Infected Mushroom w/ special guests TBA @ Third Room",
      "date": "2026-05-02T00:00:00",
      "location": "46 Wall Street, Asheville, NC, United States, North Carolina 28801, 46 Wall St, Asheville, NC 28801-2710, United States,",
      "description": "",
      "source": "AllEvents Asheville",
      "url": "https://allevents.in/asheville/infected-mushroom-w-special-guests-tba-third-room/200029526641631",
      "latitude": 35.59449,
      "longitude": -82.555992
    },
    {
      "id": "0676018d32b7",
      "title": "Ani DiFranco, Valerie June in Asheville",
      "date": "2026-05-02T00:00:00",
      "location": "Asheville Yards, Asheville Yards, Asheville, NC, United States, Asheville, NC",
      "description": "",
      "source": "AllEvents Asheville",
      "url": "https://allevents.in/asheville/ani-difranco-valerie-june-in-asheville/3300029668601648",
      "latitude": 35.595058,
      "longitude": -82.551483
    },
    {
      "id": "95c1ac7b487d",
      "title": "Asheville BuskerFest",
      "date": "2026-05-02T00:00:00",
      "location": "Pack Square Park, 7 S Spruce St, Asheville, NC 28801, United States, Asheville, NC",
      "description": "",
      "source": "AllEvents Asheville",
      "url": "https://allevents.in/asheville/asheville-buskerfest/200029871352432",
      "latitude": 35.595428,
      "longitude": -82.550293
    },
    {
      "id": "281892a9c96a",
      "title": "Rocky Horror Picture Show with Unexpected Pleasures",
      "date": "2026-05-02T00:00:00",
      "location": "The Mule at Devil's Foot Beverage, 131 Sweeten Creek Rd, Asheville, NC 28803-1526, United States, Asheville, NC",
      "description": "",
      "source": "AllEvents Asheville",
      "url": "https://allevents.in/asheville/rocky-horror-picture-show-with-unexpected-pleasures/200029856630612",
      "latitude": 35.559132,
      "longitude": -82.52179
    },
    {
      "id": "10201b508f18",
      "title": "The Nude Party w/ Tobacco City at The Grey Eagle",
      "date": "2026-05-02T00:00:00",
      "location": "The Grey Eagle, 185 Clingman Ave,Asheville, North Carolina, Asheville, NC",
      "description": "",
      "source": "AllEvents Asheville",
      "url": "https://allevents.in/asheville/the-nude-party-w-tobacco-city-at-the-grey-eagle/200029100872017",
      "latitude": 35.587063,
      "longitude": -82.564362
    },
    {
      "id": "a692dbbf4644",
      "title": "Bluegrass &amp; Brews",
      "date": "2026-05-02T00:00:00",
      "location": "26 Biltmore Ave, Asheville, NC 28801-3625, United States, 26 Biltmore Ave, Asheville, NC 28801-3625, United States, Ashe",
      "description": "",
      "source": "AllEvents Asheville",
      "url": "https://allevents.in/asheville/bluegrass-and-brews/200029689912048",
      "latitude": 35.594109,
      "longitude": -82.551323
    },
    {
      "id": "d0f9f34ed248",
      "title": "Do The Crawl de Mayo in Asheville!",
      "date": "2026-05-02T00:00:00",
      "location": "Pillar Rooftop Bar, 309 College Street, Asheville, NC",
      "description": "",
      "source": "AllEvents Asheville",
      "url": "https://allevents.in/asheville/do-the-crawl-de-mayo-in-asheville/100001985182648742",
      "latitude": 35.597012,
      "longitude": -82.546196
    },
    {
      "id": "bf4405fb8f5a",
      "title": "Cass McCombs + Band: Interior Live Oak Live at The Grey Eagle",
      "date": "2026-05-03T00:00:00",
      "location": "The Grey Eagle, 185 Clingman Ave,Asheville, North Carolina, Asheville, NC",
      "description": "",
      "source": "AllEvents Asheville",
      "url": "https://allevents.in/asheville/cass-mccombs-band-interior-live-oak-live-at-the-grey-eagle/200029566877641",
      "latitude": 35.587063,
      "longitude": -82.564362
    },
    {
      "id": "de626ed85945",
      "title": "Weekly Trivia @ South End",
      "date": "2026-05-04T19:00:00",
      "location": "Downtown Boone, NC",
      "description": "Every Monday at 7pm join South End Brewing for Trivia!",
      "source": "Downtown Boone",
      "url": "https://downtownboonenc.com/eventinfo/weekly-trivia-south-end/2026-05-04/",
      "latitude": 36.2168,
      "longitude": -81.6746
    },
    {
      "id": "c49301c2249b",
      "title": "Member Mixer - Marketing & Growth for Downtown Businesses",
      "date": "2026-05-04T20:00:00.583000",
      "location": "Third Room, 46 Wall Street, Asheville, NC, 28801",
      "description": "Marketing and business growth experts will share practical strategies to help Downtown businesses increase visibility, attract customers, and scale sustainably. Topics include branding, digital market",
      "source": "Downtown Asheville",
      "url": "https://www.ashevilledowntown.org/events/member-mixer-marketing-growth-for-downtown-businesses",
      "latitude": 35.5944374,
      "longitude": -82.55597519999999
    },
    {
      "id": "0e12ba7bc0ae",
      "title": "Ryan Montbleau (solo) at The Grey Eagle",
      "date": "2026-05-07T00:00:00",
      "location": "The Grey Eagle, 185 Clingman Ave,Asheville, North Carolina, Asheville, NC",
      "description": "",
      "source": "AllEvents Asheville",
      "url": "https://allevents.in/asheville/ryan-montbleau-solo-at-the-grey-eagle/200029785081702",
      "latitude": 35.587063,
      "longitude": -82.564362
    },
    {
      "id": "f342d87d7059",
      "title": "Old-Time Jam at the Jones House",
      "date": "2026-05-07T19:00:00",
      "location": "Downtown Boone, NC",
      "description": "Every Thursday evening from 7-10 PM, join local and visiting musicians at the Jones House for an old-time jam session. Bring your banjo, fiddle, guitar, mandolin \u2013 or whatever old-time acoustic instru",
      "source": "Downtown Boone",
      "url": "https://downtownboonenc.com/eventinfo/old-time-jam-at-the-jones-house/2026-05-07/",
      "latitude": 36.2168,
      "longitude": -81.6746
    },
    {
      "id": "6715b8c59daa",
      "title": "Live Dead &amp; Brothers: An All-Star Celebration of Grateful Dead &amp; Allman Brothers at The Grey Eagle",
      "date": "2026-05-08T00:00:00",
      "location": "The Grey Eagle, 185 Clingman Ave,Asheville, North Carolina, Asheville, NC",
      "description": "",
      "source": "AllEvents Asheville",
      "url": "https://allevents.in/asheville/live-dead-and-brothers-an-all-star-celebration-of-grateful-dead-and-allman-brothers-at-the-grey-eagl/200029330388646",
      "latitude": 35.587063,
      "longitude": -82.564362
    },
    {
      "id": "544f70e6e492",
      "title": "Laura Jane Grace &amp; Band with special guest LUNG &amp; Black Guy Fawkes",
      "date": "2026-05-08T00:00:00",
      "location": "31 Patton Avenue Asheville, NC 28801-3314, 31 Patton Ave, Asheville, NC 28801-3314, United States, Asheville, NC",
      "description": "",
      "source": "AllEvents Asheville",
      "url": "https://allevents.in/asheville/laura-jane-grace-and-band-with-special-guest-lung-and-black-guy-fawkes/200029750455825",
      "latitude": 35.594891,
      "longitude": -82.553017
    },
    {
      "id": "f7ef1be324f5",
      "title": "An Evening of Comedy and Magic with Lyndy Phillips",
      "date": "2026-05-08T19:00:00",
      "location": "Mysterium Escape Adventure, 737 W. King Street, Boone, NC, 28607, United States",
      "description": "The Carolina Comedy Magic Parlor delivers an intimate and unforgettable evening of magic and laughter, with limited seating. Step into a cozy parlor-style theater where every seat is the best seat in ",
      "source": "Downtown Boone",
      "url": "https://downtownboonenc.com/eventinfo/an-evening-of-comedy-and-magic-with-lyndy-phillips-2/2026-05-08/",
      "latitude": 36.2168,
      "longitude": -81.6746
    },
    {
      "id": "0f71dec8418c",
      "title": "FAILURE w/ All Under Heaven",
      "date": "2026-05-09T00:00:00",
      "location": "10 Buxton Avenue, Asheville, North Carolina 28801, United States, 10 Buxton Ave, Asheville, NC 28801-4020, United States",
      "description": "",
      "source": "AllEvents Asheville",
      "url": "https://allevents.in/asheville/failure-w-all-under-heaven/200029699572424",
      "latitude": 35.588348,
      "longitude": -82.553902
    },
    {
      "id": "aff256e34aad",
      "title": "Adult Field Course: Service-Learning Course: Managing Non-native Species",
      "date": "2026-05-09T10:00:00",
      "location": "Grandfather Mountain, 2050 Blowing Rock Highway, Linville, NC, 28646, United States",
      "description": "Join us to learn about non-native invasive species that can threaten our native flora and fauna and see different management strategies in action. After exploring the techniques Grandfather Mountain N",
      "source": "Grandfather Mountain",
      "url": "https://grandfather.com/event/service-learning-nonnative-species/",
      "latitude": 36.0850742,
      "longitude": -81.8462718
    },
    {
      "id": "67410387398e",
      "title": "Artifact Handmade Mother\u2019s Day Market",
      "date": "2026-05-10T00:00:00",
      "location": "Wedge at Foundation, 5 Foundy Street,Asheville, North Carolina, Asheville, NC",
      "description": "",
      "source": "AllEvents Asheville",
      "url": "https://allevents.in/asheville/artifact-handmade-mother\u2019s-day-market/200029856678414",
      "latitude": 35.577492,
      "longitude": -82.566277
    },
    {
      "id": "de7193aa277d",
      "title": "Weekly Trivia @ South End",
      "date": "2026-05-11T19:00:00",
      "location": "Downtown Boone, NC",
      "description": "Every Monday at 7pm join South End Brewing for Trivia!",
      "source": "Downtown Boone",
      "url": "https://downtownboonenc.com/eventinfo/weekly-trivia-south-end/2026-05-11/",
      "latitude": 36.2168,
      "longitude": -81.6746
    },
    {
      "id": "77f4850d98b3",
      "title": "Napalm Death, Deadguy in Asheville",
      "date": "2026-05-12T00:00:00",
      "location": "Eulogy, Eulogy, Asheville, NC, United States, Asheville, NC",
      "description": "",
      "source": "AllEvents Asheville",
      "url": "https://allevents.in/asheville/napalm-death-deadguy-in-asheville/3300029648464654",
      "latitude": 35.595058,
      "longitude": -82.551483
    },
    {
      "id": "ee92de15980c",
      "title": "Napalm Death + Deadguy",
      "date": "2026-05-12T00:00:00",
      "location": "10 Buxton Avenue, Asheville, North Carolina 28801, United States, 10 Buxton Ave, Asheville, NC 28801-4020, United States",
      "description": "",
      "source": "AllEvents Asheville",
      "url": "https://allevents.in/asheville/napalm-death-deadguy/200029681737203",
      "latitude": 35.588348,
      "longitude": -82.553902
    },
    {
      "id": "77aaa159354b",
      "title": "An Evening With Sun Kil Moon at The Grey Eagle",
      "date": "2026-05-12T00:00:00",
      "location": "The Grey Eagle, Grey Eagle Music Hall, 185 Clingman Ave, Asheville, NC 28801, United States, Asheville, NC",
      "description": "",
      "source": "AllEvents Asheville",
      "url": "https://allevents.in/asheville/an-evening-with-sun-kil-moon-at-the-grey-eagle/200029446318934",
      "latitude": 35.587063,
      "longitude": -82.564362
    },
    {
      "id": "f3cc8fdae5fb",
      "title": "An Evening With Shawn Mullins at The Grey Eagle",
      "date": "2026-05-13T00:00:00",
      "location": "The Grey Eagle, 185 Clingman Ave,Asheville, North Carolina, Asheville, NC",
      "description": "",
      "source": "AllEvents Asheville",
      "url": "https://allevents.in/asheville/an-evening-with-shawn-mullins-at-the-grey-eagle/200029854565622",
      "latitude": 35.587063,
      "longitude": -82.564362
    },
    {
      "id": "1d9b0b429fe0",
      "title": "Curren$y in Asheville",
      "date": "2026-05-14T00:00:00",
      "location": "Eulogy, Eulogy, Asheville, NC, United States, Asheville, NC",
      "description": "",
      "source": "AllEvents Asheville",
      "url": "https://allevents.in/asheville/curren$y-in-asheville/3300029668270301",
      "latitude": 35.595058,
      "longitude": -82.551483
    },
    {
      "id": "6135e532bd92",
      "title": "Old-Time Jam at the Jones House",
      "date": "2026-05-14T19:00:00",
      "location": "Downtown Boone, NC",
      "description": "Every Thursday evening from 7-10 PM, join local and visiting musicians at the Jones House for an old-time jam session. Bring your banjo, fiddle, guitar, mandolin \u2013 or whatever old-time acoustic instru",
      "source": "Downtown Boone",
      "url": "https://downtownboonenc.com/eventinfo/old-time-jam-at-the-jones-house/2026-05-14/",
      "latitude": 36.2168,
      "longitude": -81.6746
    },
    {
      "id": "592465b43814",
      "title": "Dark Star Orchestra",
      "date": "2026-05-15T00:00:00",
      "location": "75 Coxe Ave, Asheville, NC, United States, North Carolina 28801, 75 Coxe Ave, Asheville, NC 28801-3621, United States, A",
      "description": "",
      "source": "AllEvents Asheville",
      "url": "https://allevents.in/asheville/dark-star-orchestra/200029785211602",
      "latitude": 35.592072,
      "longitude": -82.555382
    },
    {
      "id": "6d24052fb3c5",
      "title": "An Evening of Comedy and Magic with Lyndy Phillips",
      "date": "2026-05-15T19:00:00",
      "location": "Mysterium Escape Adventure, 737 W. King Street, Boone, NC, 28607, United States",
      "description": "The Carolina Comedy Magic Parlor delivers an intimate and unforgettable evening of magic and laughter, with limited seating. Step into a cozy parlor-style theater where every seat is the best seat in ",
      "source": "Downtown Boone",
      "url": "https://downtownboonenc.com/eventinfo/an-evening-of-comedy-and-magic-with-lyndy-phillips-2/2026-05-15/",
      "latitude": 36.2168,
      "longitude": -81.6746
    },
    {
      "id": "f741c7c7a8a0",
      "title": "Downtown After 5 | May",
      "date": "2026-05-15T21:00:00.827000",
      "location": "Pack Square Park, 80 Court Plaza, Asheville, NC, 28801",
      "description": "Dance the night away at Pack Square Park for Latin Dance Night! Headliner La Sonora Carolina and flamenco guitarist Ulisse Rotoli bring the rhythm. Enjoy toe-tapping music, local eats, handcrafted goo",
      "source": "Downtown Asheville",
      "url": "https://www.ashevilledowntown.org/events/downtown-after-5-april-6sr5p",
      "latitude": 35.5956631,
      "longitude": -82.5490674
    },
    {
      "id": "2724b908bb84",
      "title": "The Black Angels: Passover 2026 Tour",
      "date": "2026-05-16T00:00:00",
      "location": "10 Shady Oak Drive, Asheville, North Carolina 28803, United States, 10 Shady Oak Dr, Asheville, NC 28803-2719, United St",
      "description": "",
      "source": "AllEvents Asheville",
      "url": "https://allevents.in/asheville/the-black-angels-passover-2026-tour/200029825177714",
      "latitude": 35.563202,
      "longitude": -82.537148
    },
    {
      "id": "c60bdc11a238",
      "title": "Kids and Family Fun Day (Blue Ridge Music Center - Milepost 213)",
      "date": "2026-05-16T12:00:00",
      "location": "Blue Ridge Music Center at Milepost 213 on the Blue Ridge Parkway Music Center Rd, Galax, VA 24333",
      "description": "This free event is open to all ages and includes performances, booths, an instrument \u201cpetting zoo,\u201d scavenger hunt, art activities, and more. Youth bands will perform throughout the event. * 12-12:45 ",
      "source": "NPS Blue Ridge Pkwy",
      "url": "https://www.nps.gov/blri/planyourvisit/events.htm",
      "latitude": 36.573197,
      "longitude": -80.850001
    },
    {
      "id": "8aef26fd5a0d",
      "title": "Eugene Onegin",
      "date": "2026-05-16T13:00:00",
      "location": "Appalachian Theatre, 559 W King St, Boone, NC",
      "description": "",
      "source": "Appalachian Theatre",
      "url": "https://www.apptheatre.org/events-and-tickets/eugene-onegin",
      "latitude": 36.2157,
      "longitude": -81.6752
    },
    {
      "id": "62d57c57c643",
      "title": "Biltmore Kiwanis Classic 5k/15k Races",
      "date": "2026-05-17T00:00:00",
      "location": "Antler Hill Village - Biltmore Estates, 161 Dairy Rd, Asheville, NC 28803, United States, Asheville, NC",
      "description": "",
      "source": "AllEvents Asheville",
      "url": "https://allevents.in/asheville/biltmore-kiwanis-classic-5k-15k-races/200029303552330",
      "latitude": 35.554756,
      "longitude": -82.58165
    },
    {
      "id": "efd96e85d616",
      "title": "Weekly Trivia @ South End",
      "date": "2026-05-18T19:00:00",
      "location": "Downtown Boone, NC",
      "description": "Every Monday at 7pm join South End Brewing for Trivia!",
      "source": "Downtown Boone",
      "url": "https://downtownboonenc.com/eventinfo/weekly-trivia-south-end/2026-05-18/",
      "latitude": 36.2168,
      "longitude": -81.6746
    },
    {
      "id": "b93c68fdcc03",
      "title": "Hot 8 Brass Band",
      "date": "2026-05-19T00:00:00",
      "location": "10 Buxton Avenue, Asheville, North Carolina 28801, United States, 10 Buxton Ave, Asheville, NC 28801-4020, United States",
      "description": "",
      "source": "AllEvents Asheville",
      "url": "https://allevents.in/asheville/hot-8-brass-band/200029751084622",
      "latitude": 35.588348,
      "longitude": -82.553902
    },
    {
      "id": "f804862b84c4",
      "title": "Landon Talks",
      "date": "2026-05-19T19:00:00",
      "location": "Appalachian Theatre, 559 W King St, Boone, NC",
      "description": "",
      "source": "Appalachian Theatre",
      "url": "https://www.apptheatre.org/events-and-tickets/landon-talks",
      "latitude": 36.2157,
      "longitude": -81.6752
    },
    {
      "id": "dbac60ef0c71",
      "title": "Josh Ritter in Asheville",
      "date": "2026-05-20T00:00:00",
      "location": "The Orange Peel, The Orange Peel, Asheville, NC, United States, Asheville, NC",
      "description": "",
      "source": "AllEvents Asheville",
      "url": "https://allevents.in/asheville/josh-ritter-in-asheville/3300029685842207",
      "latitude": 35.595058,
      "longitude": -82.551483
    },
    {
      "id": "241f81738d8f",
      "title": "Old-Time Jam at the Jones House",
      "date": "2026-05-21T19:00:00",
      "location": "Downtown Boone, NC",
      "description": "Every Thursday evening from 7-10 PM, join local and visiting musicians at the Jones House for an old-time jam session. Bring your banjo, fiddle, guitar, mandolin \u2013 or whatever old-time acoustic instru",
      "source": "Downtown Boone",
      "url": "https://downtownboonenc.com/eventinfo/old-time-jam-at-the-jones-house/2026-05-21/",
      "latitude": 36.2168,
      "longitude": -81.6746
    },
    {
      "id": "c07a6d17a3c3",
      "title": "Michael Gungor (Acoustic Evening)",
      "date": "2026-05-22T00:00:00",
      "location": "185 Clingman Avenue Asheville, NC 28801-3207, 185 Clingman Ave Ext, Asheville, NC 28801, United States, Asheville, NC",
      "description": "",
      "source": "AllEvents Asheville",
      "url": "https://allevents.in/asheville/michael-gungor-acoustic-evening/200029856666721",
      "latitude": 35.587059,
      "longitude": -82.56443
    },
    {
      "id": "9c0a3b2d7d6e",
      "title": "An Evening of Comedy and Magic with Lyndy Phillips",
      "date": "2026-05-22T19:00:00",
      "location": "Mysterium Escape Adventure, 737 W. King Street, Boone, NC, 28607, United States",
      "description": "The Carolina Comedy Magic Parlor delivers an intimate and unforgettable evening of magic and laughter, with limited seating. Step into a cozy parlor-style theater where every seat is the best seat in ",
      "source": "Downtown Boone",
      "url": "https://downtownboonenc.com/eventinfo/an-evening-of-comedy-and-magic-with-lyndy-phillips-2/2026-05-22/",
      "latitude": 36.2168,
      "longitude": -81.6746
    },
    {
      "id": "66afb66d1469",
      "title": "2026 Beer City Relay &amp; 5k/10k",
      "date": "2026-05-23T00:00:00",
      "location": "New Belgium Brewing - Asheville (Asheville, NC), 21 Craven St, Asheville, NC 28806-4607, United States, Asheville, NC",
      "description": "",
      "source": "AllEvents Asheville",
      "url": "https://allevents.in/asheville/2026-beer-city-relay-and-5k-10k/200029229367344",
      "latitude": 35.5867,
      "longitude": -82.570641
    },
    {
      "id": "70e70aa8c9fc",
      "title": "Asheville Memorial Day Weekend Bar Crawl 2026",
      "date": "2026-05-23T00:00:00",
      "location": "Urban Orchard, 24 Buxton Avenue, Asheville, NC",
      "description": "",
      "source": "AllEvents Asheville",
      "url": "https://allevents.in/asheville/asheville-memorial-day-weekend-bar-crawl-2026/100001985377635954",
      "latitude": 35.588284,
      "longitude": -82.553627
    },
    {
      "id": "f559ecb03800",
      "title": "Cole Chaney and Kyova at The Grey Eagle",
      "date": "2026-05-23T00:00:00",
      "location": "The Grey Eagle, 185 Clingman Ave,Asheville,NC,United States, Asheville, NC",
      "description": "",
      "source": "AllEvents Asheville",
      "url": "https://allevents.in/asheville/cole-chaney-and-kyova-at-the-grey-eagle/200029856631216",
      "latitude": 35.587063,
      "longitude": -82.564362
    },
    {
      "id": "c7004c0fb492",
      "title": "The Magic Flute",
      "date": "2026-05-23T13:00:00",
      "location": "Appalachian Theatre, 559 W King St, Boone, NC",
      "description": "",
      "source": "Appalachian Theatre",
      "url": "https://www.apptheatre.org/events-and-tickets/the-magic-flute",
      "latitude": 36.2157,
      "longitude": -81.6752
    },
    {
      "id": "7beae1688c2c",
      "title": "Rhododendron Ramble",
      "date": "2026-05-23T13:00:00",
      "location": "Grandfather Mountain, 2050 Blowing Rock Highway, Linville, NC, 28646, United States",
      "description": "Take a daily, short, guided stroll that highlights Grandfather Mountain\u2019s rhododendron species and blooms. Included with admission. See the blooms and learn about their history, attributes and roles t",
      "source": "Grandfather Mountain",
      "url": "https://grandfather.com/event/rhodo-ramble-2/2026-05-23/",
      "latitude": 36.0850742,
      "longitude": -81.8462718
    },
    {
      "id": "1b816d3f47ee",
      "title": "Shawn Camp - Deep Roots, Many Voices: Summer Outdoor Concert Series (Blue Ridge Music Center - Milepost 213)",
      "date": "2026-05-23T19:00:00",
      "location": "Blue Ridge Music Center at Milepost 213 on the Blue Ridge Parkway Music Center Rd, Galax, VA 24333",
      "description": "Shawn Camp Camp began playing guitar as a small child, growing up outside Perryville, Arkansas. Mandolin and fiddle followed, all before he could drive. He remembers dreaming of melodies, waking up, a",
      "source": "NPS Blue Ridge Pkwy",
      "url": "https://www.nps.gov/blri/planyourvisit/events.htm",
      "latitude": 36.572886,
      "longitude": -80.851589
    },
    {
      "id": "15e7a126af05",
      "title": "Rhododendron Ramble",
      "date": "2026-05-24T13:00:00",
      "location": "Grandfather Mountain, 2050 Blowing Rock Highway, Linville, NC, 28646, United States",
      "description": "Take a daily, short, guided stroll that highlights Grandfather Mountain\u2019s rhododendron species and blooms. Included with admission. See the blooms and learn about their history, attributes and roles t",
      "source": "Grandfather Mountain",
      "url": "https://grandfather.com/event/rhodo-ramble-2/2026-05-24/",
      "latitude": 36.0850742,
      "longitude": -81.8462718
    },
    {
      "id": "1d28df5445a7",
      "title": "Rhododendron Ramble",
      "date": "2026-05-25T13:00:00",
      "location": "Grandfather Mountain, 2050 Blowing Rock Highway, Linville, NC, 28646, United States",
      "description": "Take a daily, short, guided stroll that highlights Grandfather Mountain\u2019s rhododendron species and blooms. Included with admission. See the blooms and learn about their history, attributes and roles t",
      "source": "Grandfather Mountain",
      "url": "https://grandfather.com/event/rhodo-ramble-2/2026-05-25/",
      "latitude": 36.0850742,
      "longitude": -81.8462718
    },
    {
      "id": "0163a13737d8",
      "title": "Rhododendron Ramble",
      "date": "2026-05-26T13:00:00",
      "location": "Grandfather Mountain, 2050 Blowing Rock Highway, Linville, NC, 28646, United States",
      "description": "Take a daily, short, guided stroll that highlights Grandfather Mountain\u2019s rhododendron species and blooms. Included with admission. See the blooms and learn about their history, attributes and roles t",
      "source": "Grandfather Mountain",
      "url": "https://grandfather.com/event/rhodo-ramble-2/2026-05-26/",
      "latitude": 36.0850742,
      "longitude": -81.8462718
    },
    {
      "id": "54bc502ba447",
      "title": "Rhododendron Ramble",
      "date": "2026-05-27T13:00:00",
      "location": "Grandfather Mountain, 2050 Blowing Rock Highway, Linville, NC, 28646, United States",
      "description": "Take a daily, short, guided stroll that highlights Grandfather Mountain\u2019s rhododendron species and blooms. Included with admission. See the blooms and learn about their history, attributes and roles t",
      "source": "Grandfather Mountain",
      "url": "https://grandfather.com/event/rhodo-ramble-2/2026-05-27/",
      "latitude": 36.0850742,
      "longitude": -81.8462718
    },
    {
      "id": "368aa55fa9df",
      "title": "The Wailers in Asheville",
      "date": "2026-05-28T00:00:00",
      "location": "Asheville, NC, United States, Asheville, NC, United States, Asheville, NC",
      "description": "",
      "source": "AllEvents Asheville",
      "url": "https://allevents.in/asheville/the-wailers-in-asheville/3300029740457719",
      "latitude": 35.595058,
      "longitude": -82.551483
    },
    {
      "id": "d15ec5fbe0a3",
      "title": "Rhododendron Ramble",
      "date": "2026-05-28T13:00:00",
      "location": "Grandfather Mountain, 2050 Blowing Rock Highway, Linville, NC, 28646, United States",
      "description": "Take a daily, short, guided stroll that highlights Grandfather Mountain\u2019s rhododendron species and blooms. Included with admission. See the blooms and learn about their history, attributes and roles t",
      "source": "Grandfather Mountain",
      "url": "https://grandfather.com/event/rhodo-ramble-2/2026-05-28/",
      "latitude": 36.0850742,
      "longitude": -81.8462718
    },
    {
      "id": "5250479e0f27",
      "title": "Old-Time Jam at the Jones House",
      "date": "2026-05-28T19:00:00",
      "location": "Downtown Boone, NC",
      "description": "Every Thursday evening from 7-10 PM, join local and visiting musicians at the Jones House for an old-time jam session. Bring your banjo, fiddle, guitar, mandolin \u2013 or whatever old-time acoustic instru",
      "source": "Downtown Boone",
      "url": "https://downtownboonenc.com/eventinfo/old-time-jam-at-the-jones-house/2026-05-28/",
      "latitude": 36.2168,
      "longitude": -81.6746
    },
    {
      "id": "a8286103f397",
      "title": "SUSTO Stringband- OFFICIAL ALBUM RELEASE SHOW",
      "date": "2026-05-29T00:00:00",
      "location": "55 College Street, Asheville, NC, United States, North Carolina 28801, 55 College St, Asheville, NC 28801-2819, United S",
      "description": "",
      "source": "AllEvents Asheville",
      "url": "https://allevents.in/asheville/susto-stringband-official-album-release-show/200029856636051",
      "latitude": 35.5952,
      "longitude": -82.553123
    },
    {
      "id": "a2baf40636de",
      "title": "Rhododendron Ramble",
      "date": "2026-05-29T13:00:00",
      "location": "Grandfather Mountain, 2050 Blowing Rock Highway, Linville, NC, 28646, United States",
      "description": "Take a daily, short, guided stroll that highlights Grandfather Mountain\u2019s rhododendron species and blooms. Included with admission. See the blooms and learn about their history, attributes and roles t",
      "source": "Grandfather Mountain",
      "url": "https://grandfather.com/event/rhodo-ramble-2/2026-05-29/",
      "latitude": 36.0850742,
      "longitude": -81.8462718
    },
    {
      "id": "920aab94cbd5",
      "title": "Grandfather by Night: Twilight Hike",
      "date": "2026-05-29T20:00:00",
      "location": "Grandfather Mountain, 2050 Blowing Rock Highway, Linville, NC, 28646, United States",
      "description": "Explore the mountain after hours with your own personal guides during our Grandfather by Night series! You\u2019ll discover some of the park\u2019s nighttime wonders, watch a stunning sunset (weather permitting",
      "source": "Grandfather Mountain",
      "url": "https://grandfather.com/event/by-night-1-2/",
      "latitude": 36.0850742,
      "longitude": -81.8462718
    },
    {
      "id": "fa4a91e7bd0e",
      "title": "Classic Car Show - Coxe Avenue, Asheville's Original Motor Mile",
      "date": "2026-05-30T00:00:00",
      "location": "Coxe Ave, Asheville, NC 28801, United States, 117 Coxe Ave, Asheville, NC 28801-4025, United States, Asheville, NC",
      "description": "",
      "source": "AllEvents Asheville",
      "url": "https://allevents.in/asheville/classic-car-show-coxe-avenue-ashevilles-original-motor-mile/200029500831923",
      "latitude": 35.59037,
      "longitude": -82.555008
    },
    {
      "id": "5b2c50b67d62",
      "title": "El Ultimo Sueno De Frida y Diego",
      "date": "2026-05-30T13:00:00",
      "location": "Appalachian Theatre, 559 W King St, Boone, NC",
      "description": "",
      "source": "Appalachian Theatre",
      "url": "https://www.apptheatre.org/events-and-tickets/el-ultimo-sueno-de-frida-y-diego",
      "latitude": 36.2157,
      "longitude": -81.6752
    },
    {
      "id": "134987c32e7b",
      "title": "Rhododendron Ramble",
      "date": "2026-05-30T13:00:00",
      "location": "Grandfather Mountain, 2050 Blowing Rock Highway, Linville, NC, 28646, United States",
      "description": "Take a daily, short, guided stroll that highlights Grandfather Mountain\u2019s rhododendron species and blooms. Included with admission. See the blooms and learn about their history, attributes and roles t",
      "source": "Grandfather Mountain",
      "url": "https://grandfather.com/event/rhodo-ramble-2/2026-05-30/",
      "latitude": 36.0850742,
      "longitude": -81.8462718
    },
    {
      "id": "1",
      "title": "Shoot to Thrill",
      "date": "2026-05-30T19:00:00",
      "location": "West Jefferson, NC",
      "description": "SHOOT TO THRILL with Black Market Conspiracy",
      "url": "https://saloonstudioslive.com/shows/",
      "source": "Saloon Studios",
      "latitude": 36.3551,
      "longitude": -81.5065
    },
    {
      "id": "49ae25e5d7de",
      "title": "Rhododendron Ramble",
      "date": "2026-05-31T13:00:00",
      "location": "Grandfather Mountain, 2050 Blowing Rock Highway, Linville, NC, 28646, United States",
      "description": "Take a daily, short, guided stroll that highlights Grandfather Mountain\u2019s rhododendron species and blooms. Included with admission. See the blooms and learn about their history, attributes and roles t",
      "source": "Grandfather Mountain",
      "url": "https://grandfather.com/event/rhodo-ramble-2/2026-05-31/",
      "latitude": 36.0850742,
      "longitude": -81.8462718
    },
    {
      "id": "033d423218dc",
      "title": "Tank and The Bangas: The Last Balloon Tour at The Grey Eagle",
      "date": "2026-06-03T00:00:00",
      "location": "The Grey Eagle, 185 Clingman Ave,Asheville, North Carolina, Asheville, NC",
      "description": "",
      "source": "AllEvents Asheville",
      "url": "https://allevents.in/asheville/tank-and-the-bangas-the-last-balloon-tour-at-the-grey-eagle/200029856634846",
      "latitude": 35.587063,
      "longitude": -82.564362
    },
    {
      "id": "483b6d550a4f",
      "title": "Coheed &amp; Cambria w/ Cicada Rhythm",
      "date": "2026-06-04T00:00:00",
      "location": "The Orange Peel, Asheville, NC",
      "description": "",
      "source": "AllEvents Asheville",
      "url": "https://allevents.in/asheville/coheed-and-cambria-w-cicada-rhythm/210003437241267",
      "latitude": 35.594799,
      "longitude": -82.557198
    },
    {
      "id": "4d4c39b5b382",
      "title": "An Evening With Patterson Hood (of Drive-By Truckers) at The Grey Eagle",
      "date": "2026-06-04T00:00:00",
      "location": "The Grey Eagle, 185 Clingman Ave,Asheville, North Carolina, Asheville, NC",
      "description": "",
      "source": "AllEvents Asheville",
      "url": "https://allevents.in/asheville/an-evening-with-patterson-hood-of-drive-by-truckers-at-the-grey-eagle/200029806321245",
      "latitude": 35.587063,
      "longitude": -82.564362
    },
    {
      "id": "555b4af16da7",
      "title": "Coheed and Cambria",
      "date": "2026-06-04T00:00:00",
      "location": "101 Biltmore Avenue Asheville, NC 28801-3640, 101 Biltmore Ave, Asheville, NC 28801-3640, United States, Asheville, NC",
      "description": "",
      "source": "AllEvents Asheville",
      "url": "https://allevents.in/asheville/coheed-and-cambria/200029856657034",
      "latitude": 35.591412,
      "longitude": -82.550941
    },
    {
      "id": "850befa42f27",
      "title": "Hot In Herre: 2000s Dance Party",
      "date": "2026-06-05T00:00:00",
      "location": "The Orange Peel, 101 Biltmore ave,Asheville, North Carolina, Asheville, NC",
      "description": "",
      "source": "AllEvents Asheville",
      "url": "https://allevents.in/asheville/hot-in-herre-2000s-dance-party/200029856625441",
      "latitude": 35.591415,
      "longitude": -82.551147
    },
    {
      "id": "b809f5909173",
      "title": "Nature Photography Weekend",
      "date": "2026-06-05T08:00:00",
      "location": "Grandfather Mountain, 2050 Blowing Rock Highway, Linville, NC, 28646, United States",
      "description": "This popular shutterbug weekend includes presentations from top nature photographers, hands-on field courses, a friendly contest and the rare opportunity to photograph the mountain\u2019s spectacular scene",
      "source": "Grandfather Mountain",
      "url": "https://grandfather.com/event/nature-photography-weekend/",
      "latitude": 36.0850742,
      "longitude": -81.8462718
    },
    {
      "id": "9fc3a4cc1b49",
      "title": "Flatland Cavalry: Work of Heart Tour | Asheville, NC",
      "date": "2026-06-06T00:00:00",
      "location": "Asheville Yards, 75 Coxe Ave, Asheville, NC 28801-3621, United States, Asheville, NC",
      "description": "",
      "source": "AllEvents Asheville",
      "url": "https://allevents.in/asheville/flatland-cavalry-work-of-heart-tour-|-asheville-nc/200029792483312",
      "latitude": 35.592072,
      "longitude": -82.555382
    },
    {
      "id": "985baaa3fc98",
      "title": "Flatland Cavalry, Tobacco Road in Asheville",
      "date": "2026-06-06T00:00:00",
      "location": "Asheville Yards, Asheville Yards, Asheville, NC, United States, Asheville, NC",
      "description": "",
      "source": "AllEvents Asheville",
      "url": "https://allevents.in/asheville/flatland-cavalry-tobacco-road-in-asheville/3300029668220109",
      "latitude": 35.595058,
      "longitude": -82.551483
    },
    {
      "id": "d034de914f30",
      "title": "Flatland Cavalry in Asheville",
      "date": "2026-06-06T00:00:00",
      "location": "Asheville Yards, Asheville Yards, Asheville, NC, United States, Asheville, NC",
      "description": "",
      "source": "AllEvents Asheville",
      "url": "https://allevents.in/asheville/flatland-cavalry-in-asheville/3300029668220209",
      "latitude": 35.595058,
      "longitude": -82.551483
    },
    {
      "id": "d4a398d0521b",
      "title": "Paul McDonald &amp; The Mourning Doves at The Grey Eagle",
      "date": "2026-06-06T00:00:00",
      "location": "The Grey Eagle, 185 Clingman Ave,Asheville, North Carolina, Asheville, NC",
      "description": "",
      "source": "AllEvents Asheville",
      "url": "https://allevents.in/asheville/paul-mcdonald-and-the-mourning-doves-at-the-grey-eagle/200029772907550",
      "latitude": 35.587063,
      "longitude": -82.564362
    },
    {
      "id": "2",
      "title": "Heart Breaker",
      "date": "2026-06-06T19:00:00",
      "location": "West Jefferson, NC",
      "description": "HEART BREAKER with The Last Resort",
      "url": "https://saloonstudioslive.com/shows/",
      "source": "Saloon Studios",
      "latitude": 36.3551,
      "longitude": -81.5065
    },
    {
      "id": "6d098d058c2d",
      "title": "Duncan Trussell - TWO SHOWS",
      "date": "2026-06-07T00:00:00",
      "location": "The Orange Peel, 101 Biltmore ave,Asheville, North Carolina, Asheville, NC",
      "description": "",
      "source": "AllEvents Asheville",
      "url": "https://allevents.in/asheville/duncan-trussell-two-shows/200029856646651",
      "latitude": 35.591415,
      "longitude": -82.551147
    },
    {
      "id": "727ef5896592",
      "title": "5th Annual Asheville HoneyFest",
      "date": "2026-06-07T00:00:00",
      "location": "Highland Brewing Company, 12 Old Charlotte Hwy, Asheville, NC 28803-9419, United States, Asheville, NC",
      "description": "",
      "source": "AllEvents Asheville",
      "url": "https://allevents.in/asheville/5th-annual-asheville-honeyfest/200029856338049",
      "latitude": 35.570568,
      "longitude": -82.498009
    },
    {
      "id": "068232f5f3c4",
      "title": "Brandi Carlile",
      "date": "2026-06-10T00:00:00",
      "location": "Harrah's Cherokee Center - Asheville, Asheville, NC",
      "description": "",
      "source": "AllEvents Asheville",
      "url": "https://allevents.in/asheville/brandi-carlile/210003567038583",
      "latitude": 35.597469,
      "longitude": -82.55529
    },
    {
      "id": "8ebd604398de",
      "title": "El Arte del Bolero: Miguel Zen\u00f3n & Luis Perdomo",
      "date": "2026-06-10T18:30:00",
      "location": "Appalachian Theatre, 559 W King St, Boone, NC",
      "description": "",
      "source": "Appalachian Theatre",
      "url": "https://www.apptheatre.org/events-and-tickets/hcjf-zenon-perdomo",
      "latitude": 36.2157,
      "longitude": -81.6752
    },
    {
      "id": "50fbe1311af7",
      "title": "Animal Birthday Party",
      "date": "2026-06-10T19:00:00",
      "location": "Grandfather Mountain, 2050 Blowing Rock Highway, Linville, NC, 28646, United States",
      "description": "Join us to celebrate the birthdays of our resident animals with games, contests, crafts and surprises. The park\u2019s wildlife habitat staff hosts a fun-filled afternoon for guests, as well as programs to",
      "source": "Grandfather Mountain",
      "url": "https://grandfather.com/event/animal-birthday-party/",
      "latitude": 36.0850742,
      "longitude": -81.8462718
    },
    {
      "id": "600b39ab9bad",
      "title": "Educator Workshop: Methods of Teaching Environmental Education",
      "date": "2026-06-12T10:00:00",
      "location": "Grandfather Mountain, 2050 Blowing Rock Highway, Linville, NC, 28646, United States",
      "description": "NOTE: This Educator Workshop is intended specifically for educators \u2014 not the general public. The focus of this 10-hour workshop is to prepare participants from a variety of educational backgrounds an",
      "source": "Grandfather Mountain",
      "url": "https://grandfather.com/event/educator-workshop-methods/",
      "latitude": 36.0850742,
      "longitude": -81.8462718
    },
    {
      "id": "d1ba3c93c766",
      "title": "Spyro Gyra",
      "date": "2026-06-12T19:30:00",
      "location": "Appalachian Theatre, 559 W King St, Boone, NC",
      "description": "",
      "source": "Appalachian Theatre",
      "url": "https://www.apptheatre.org/events-and-tickets/hcjf-spyro-gyra",
      "latitude": 36.2157,
      "longitude": -81.6752
    },
    {
      "id": "60b6db9b5032",
      "title": "Grandfather by Night: Twilight Hike",
      "date": "2026-06-12T20:00:00",
      "location": "Grandfather Mountain, 2050 Blowing Rock Hwy, Linville, NC",
      "description": "Explore the mountain after hours with your own personal guides during our Grandfather by Night series! You\u2019ll discover some of the park\u2019s nighttime wonders, watch a stunning sunset (weather permitting",
      "source": "Grandfather Mountain",
      "url": "https://grandfather.com/event/by-night2/",
      "latitude": 36.0979,
      "longitude": -81.814
    },
    {
      "id": "baa792c3f425",
      "title": "GRINDfest 2026",
      "date": "2026-06-13T00:00:00",
      "location": "Pack Square Park, 80 Court Plaza, Asheville, NC",
      "description": "",
      "source": "AllEvents Asheville",
      "url": "https://allevents.in/asheville/grindfest-2026/100001984973381819",
      "latitude": 35.595566,
      "longitude": -82.549385
    },
    {
      "id": "5f3da44ec34c",
      "title": "Live Nation Presents: Hot Mulligan",
      "date": "2026-06-13T00:00:00",
      "location": "75 Coxe Ave, Asheville, NC, United States, North Carolina 28801, 75 Coxe Ave, Asheville, NC 28801-3621, United States, A",
      "description": "",
      "source": "AllEvents Asheville",
      "url": "https://allevents.in/asheville/live-nation-presents-hot-mulligan/200029792514946",
      "latitude": 35.592072,
      "longitude": -82.555382
    },
    {
      "id": "217f0270199e",
      "title": "An Evening With Steep Canyon Rangers - Deep Roots, Many Voices: Summer Outdoor Concert Series (Blue Ridge Music Center - Milepost 213)",
      "date": "2026-06-13T19:00:00",
      "location": "Blue Ridge Music Center at Milepost 213 on the Blue Ridge Parkway Music Center Rd, Galax, VA 24333",
      "description": "Steep Canyon Rangers Hailing from both the Appalachian and Piedmont regions of North Carolina, Steep Canyon Rangers have long held traditional bluegrass paramount, while possessing an exceptional abil",
      "source": "NPS Blue Ridge Pkwy",
      "url": "https://www.nps.gov/blri/planyourvisit/events.htm",
      "latitude": 36.572886,
      "longitude": -80.851589
    },
    {
      "id": "aff735552698",
      "title": "Wycliffe Gordon",
      "date": "2026-06-13T19:30:00",
      "location": "Appalachian Theatre, 559 W King St, Boone, NC",
      "description": "",
      "source": "Appalachian Theatre",
      "url": "https://www.apptheatre.org/events-and-tickets/hcjf-wycliffe-gordon",
      "latitude": 36.2157,
      "longitude": -81.6752
    },
    {
      "id": "bb6f7c661ee9",
      "title": "RAD Half Marathon &amp; 10k",
      "date": "2026-06-14T00:00:00",
      "location": "Downtown Asheville, Asheville, NC",
      "description": "",
      "source": "AllEvents Asheville",
      "url": "https://allevents.in/asheville/rad-half-marathon-and-10k/200028556069743",
      "latitude": 35.583828,
      "longitude": -82.4627
    },
    {
      "id": "642bae249f5b",
      "title": "Emmet Cohen Trio",
      "date": "2026-06-14T15:00:00",
      "location": "Appalachian Theatre, 559 W King St, Boone, NC",
      "description": "",
      "source": "Appalachian Theatre",
      "url": "https://www.apptheatre.org/events-and-tickets/hcjf-emmet-cohen-trio",
      "latitude": 36.2157,
      "longitude": -81.6752
    },
    {
      "id": "bffe515820b8",
      "title": "THE MOTH Presents: Asheville StorySLAM - &quot;AMERICAN DREAMS&quot; at The Grey Eagle",
      "date": "2026-06-18T00:00:00",
      "location": "The Grey Eagle, 185 Clingman Ave,Asheville, North Carolina, Asheville, NC",
      "description": "",
      "source": "AllEvents Asheville",
      "url": "https://allevents.in/asheville/the-moth-presents-asheville-storyslam-american-dreams-at-the-grey-eagle/200029792498728",
      "latitude": 35.587063,
      "longitude": -82.564362
    },
    {
      "id": "032d48292f67",
      "title": "Boone's Got Talent \u2014 Boonerang 2026",
      "date": "2026-06-18T19:00:00",
      "location": "Appalachian Theatre, 559 W King St, Boone, NC",
      "description": "Competition for a spot at Boonerang Music & Arts Festival, with cash prizes including $500 top prize.",
      "source": "Boonerang Festival",
      "url": "https://www.boonerangfest.com",
      "latitude": 36.2157,
      "longitude": -81.6752
    },
    {
      "id": "1b2b179ec225",
      "title": "Boonerang Music & Arts Festival \u2014 Free Shows & Silent Disco",
      "date": "2026-06-19T18:00:00",
      "location": "Downtown Boone, NC",
      "description": "Free live music on multiple stages throughout downtown Boone. Evening silent disco.",
      "source": "Boonerang Festival",
      "url": "https://www.boonerangfest.com",
      "latitude": 36.2168,
      "longitude": -81.6746
    },
    {
      "id": "64cde48764b3",
      "title": "Grandfather by Night: Naturalist Program",
      "date": "2026-06-19T20:00:00",
      "location": "Grandfather Mountain, 2050 Blowing Rock Hwy, Linville, NC",
      "description": "Explore the mountain after hours with your own personal guides during our Grandfather by Night series! You\u2019ll discover some of the park\u2019s nighttime wonders, watch a stunning sunset (weather permitting",
      "source": "Grandfather Mountain",
      "url": "https://grandfather.com/event/by-night7/",
      "latitude": 36.0979,
      "longitude": -81.814
    },
    {
      "id": "f6f42123c435",
      "title": "Downtown After 5 | June",
      "date": "2026-06-19T21:00:00.725000",
      "location": "Pack Square Park, 80 Court Plaza, Asheville, NC, 28801",
      "description": "Celebrate Juneteenth at Pack Square Park with Downtown After 5! Enjoy soulful music from headliner Kanika Moore and Reggie Headen &amp; the Nite Time Noon. Visit the marketplace in The Block, grab foo",
      "source": "Downtown Asheville",
      "url": "https://www.ashevilledowntown.org/events/downtown-after-5-april-kdkd8-w2b29",
      "latitude": 35.5956631,
      "longitude": -82.5490674
    },
    {
      "id": "38b910936425",
      "title": "Mindfulness and Well-being Series: Yoga on the Mountain: Grounded and Grateful",
      "date": "2026-06-20T10:00:00",
      "location": "Grandfather Mountain, 2050 Blowing Rock Highway, Linville, NC, 28646, United States",
      "description": "Join Shannon Burbridge, an experienced movement instructor and educator with over 37 years of experience in the fitness and wellness field, to immerse yourself in a full day of yoga and grounding tech",
      "source": "Grandfather Mountain",
      "url": "https://grandfather.com/event/mindfulness/",
      "latitude": 36.0850742,
      "longitude": -81.8462718
    },
    {
      "id": "5b95240b9e05",
      "title": "Boonerang Music & Arts Festival \u2014 Main Street Festival",
      "date": "2026-06-20T11:00:00",
      "location": "Downtown Boone, NC",
      "description": "All-day free street festival with music on multiple stages, local food and beer, vendor market, kids zone.",
      "source": "Boonerang Festival",
      "url": "https://www.boonerangfest.com",
      "latitude": 36.2168,
      "longitude": -81.6746
    },
    {
      "id": "3",
      "title": "Second Helping",
      "date": "2026-06-20T19:00:00",
      "location": "West Jefferson, NC",
      "description": "SECOND HELPING with CJ Ballard",
      "url": "https://saloonstudioslive.com/shows/",
      "source": "Saloon Studios",
      "latitude": 36.3551,
      "longitude": -81.5065
    },
    {
      "id": "4dd2e1d5636f",
      "title": "Boonerang International Parade of Nations",
      "date": "2026-06-21T12:00:00",
      "location": "N Depot St & Queen St, Boone, NC",
      "description": "International Parade of Nations celebrating cultural diversity.",
      "source": "Boonerang Festival",
      "url": "https://www.boonerangfest.com",
      "latitude": 36.2168,
      "longitude": -81.6746
    },
    {
      "id": "4",
      "title": "Hollywood Nights",
      "date": "2026-06-26T19:00:00",
      "location": "West Jefferson, NC",
      "description": "HOLLYWOOD NIGHTS with Those 3 Guys",
      "url": "https://saloonstudioslive.com/shows/",
      "source": "Saloon Studios",
      "latitude": 36.3551,
      "longitude": -81.5065
    },
    {
      "id": "5",
      "title": "On the Border",
      "date": "2026-06-26T19:00:00",
      "location": "West Jefferson, NC",
      "description": "ON THE BORDER with Little Horse",
      "url": "https://saloonstudioslive.com/shows/",
      "source": "Saloon Studios",
      "latitude": 36.3551,
      "longitude": -81.5065
    },
    {
      "id": "3f4c3e5b755e",
      "title": "HENRY CHO: THE EMPTY NEST TOUR",
      "date": "2026-06-27T00:00:00",
      "location": "The Orange Peel, 101 Biltmore ave,Asheville,NC,United States, Asheville, NC",
      "description": "",
      "source": "AllEvents Asheville",
      "url": "https://allevents.in/asheville/henry-cho-the-empty-nest-tour/200029856672651",
      "latitude": 35.591415,
      "longitude": -82.551147
    },
    {
      "id": "70735cf84e88",
      "title": "2026 AVL Independence Day 5k",
      "date": "2026-07-04T00:00:00",
      "location": "Pack Square Park, Asheville, NC, United States, North Carolina 28801, 3 SW Pack Sq, Asheville, NC 28801-3501, United Sta",
      "description": "",
      "source": "AllEvents Asheville",
      "url": "https://allevents.in/asheville/2026-avl-independence-day-5k/200029685188149",
      "latitude": 35.594898,
      "longitude": -82.551659
    },
    {
      "id": "4da3d7fdb113",
      "title": "Independence Day Block Party",
      "date": "2026-07-04T21:00:00.853000",
      "location": "Asheville, NC",
      "description": "Join us for a day of free family fun with the Amazing Air Dogs, live music, local vendors, and, of course, a fireworks show!",
      "source": "Downtown Asheville",
      "url": "https://www.ashevilledowntown.org/events/independence-day-block-party-jxbdg-2y9m7",
      "latitude": 35.588556,
      "longitude": -82.5546897
    },
    {
      "id": "c3978aec70f4",
      "title": "The Big Crafty",
      "date": "2026-07-11T00:00:00",
      "location": "Harrah's Cherokee Center - Asheville, 87 Haywood St, Asheville, NC 28801-2852, United States, Asheville, NC",
      "description": "",
      "source": "AllEvents Asheville",
      "url": "https://allevents.in/asheville/the-big-crafty/200029820321937",
      "latitude": 35.597683,
      "longitude": -82.55558
    },
    {
      "id": "13dcc5508ee6",
      "title": "Eggy at Asheville Music Hall",
      "date": "2026-07-17T00:00:00",
      "location": "55 College Street, Asheville, NC, United States, North Carolina 28801, 55 College St, Asheville, NC 28801-2819, United S",
      "description": "",
      "source": "AllEvents Asheville",
      "url": "https://allevents.in/asheville/eggy-at-asheville-music-hall/200029733212241",
      "latitude": 35.5952,
      "longitude": -82.553123
    },
    {
      "id": "b274dc2ad602",
      "title": "Doc & Rosa Lee Watson MusicFest",
      "date": "2026-07-17T19:00:00",
      "location": "Appalachian Theatre, 559 W King St, Boone, NC",
      "description": "",
      "source": "Appalachian Theatre",
      "url": "https://www.apptheatre.org/events-and-tickets/doc-rosalee-watson-musicfest2026",
      "latitude": 36.2157,
      "longitude": -81.6752
    },
    {
      "id": "a8e83768547b",
      "title": "\u2018Local Love\u2019 Lineup Revealed for FloydFest 26~Daydream (July 22-26, 2026)",
      "date": "2026-07-22T10:00:00",
      "location": "Boone, NC",
      "description": "",
      "source": "High Country Press",
      "url": "https://www.hcpress.com/events/local-love-lineup-revealed-for-floydfest-26daydream-july-22-26-2026.html",
      "latitude": 36.2168,
      "longitude": -81.6746
    },
    {
      "id": "70645975a0c0",
      "title": "Announcing FloydFest 26~Daydream, July 22-26, 2026; Tedeschi Trucks Band, My Morning Jacket, Stephen Wilson Jr., Lukas Nelson to Headline \u2013 Tickets on Sale Now with \u2018Early-Bird\u2019 Pricing",
      "date": "2026-07-22T10:00:00",
      "location": "Boone, NC",
      "description": "",
      "source": "High Country Press",
      "url": "https://www.hcpress.com/entertainment/announcing-floydfest-26daydream-july-22-26-2026-tedeschi-trucks-band-my-morning-jacket-stephen-wilson-jr-lukas-nelson-to-headline-tickets-on-sale-now.html",
      "latitude": 36.2168,
      "longitude": -81.6746
    },
    {
      "id": "bbb3e3c9fdfa",
      "title": "Love Shine Play Festival 2026",
      "date": "2026-07-23T00:00:00",
      "location": "Asheville, NC, 80 Court Plaza, Asheville, NC",
      "description": "",
      "source": "AllEvents Asheville",
      "url": "https://allevents.in/asheville/love-shine-play-festival-2026/100001514317527489",
      "latitude": 35.592747,
      "longitude": -82.556458
    },
    {
      "id": "6",
      "title": "Pandora's Box",
      "date": "2026-07-25T19:00:00",
      "location": "West Jefferson, NC",
      "description": "PANDORA'S BOX with The Rewind",
      "url": "https://saloonstudioslive.com/shows/",
      "source": "Saloon Studios",
      "latitude": 36.3551,
      "longitude": -81.5065
    },
    {
      "id": "1187972b7d01",
      "title": "Steel Pulse",
      "date": "2026-07-28T00:00:00",
      "location": "French Broad River Brewery, 101 Fairview Road, Asheville, NC",
      "description": "",
      "source": "AllEvents Asheville",
      "url": "https://allevents.in/asheville/steel-pulse/100001985160398190",
      "latitude": 35.566483,
      "longitude": -82.537384
    },
    {
      "id": "2588216a9571",
      "title": "Animal Enrichment Day",
      "date": "2026-07-29T19:00:00",
      "location": "Grandfather Mountain, 2050 Blowing Rock Highway, Linville, NC, 28646, United States",
      "description": "On Animal Enrichment Day, guests see firsthand how Grandfather Mountain cares for its resident animals. An enrichment is a special treat, new toy or even an unfamiliar scent given to the animals to br",
      "source": "Grandfather Mountain",
      "url": "https://grandfather.com/event/animal-enrichment-day/",
      "latitude": 36.0850742,
      "longitude": -81.8462718
    },
    {
      "id": "e01dbefe36c7",
      "title": "Educator Workshop: WILD About Bears",
      "date": "2026-07-31T10:00:00",
      "location": "Grandfather Mountain, 2050 Blowing Rock Highway, Linville, NC, 28646, United States",
      "description": "NOTE: This Educator Workshop is intended specifically for educators \u2014 not the general public. This workshop is open to individuals studying for the NC Environmental Education Certification or those ne",
      "source": "Grandfather Mountain",
      "url": "https://grandfather.com/event/educator-workshop-wild-about-bear/",
      "latitude": 36.0850742,
      "longitude": -81.8462718
    },